ride_id,rideable_type,started_at,ended_at,start_station_name,start_station_id,end_station_name,end_station_id,start_lat,start_lng,end_lat,end_lng,member_casual
34239F4B32CBF465,classic_bike,2022-05-09T19:16:04Z,2022-05-09T19:20:26Z,Pacific St & Nevins St,4362.04,Schermerhorn St & Bond St,4479.08,40.685251236,-73.98267591,40.688417427540834,-73.98451656103134,member
746C6F030C3FDCDB,classic_bike,2022-05-18T07:27:20Z,2022-05-18T07:35:07Z,1 Ave & E 39 St,6303.01,E 53 St & Lexington Ave,6617.09,40.74714,-73.97113,40.75828065,-73.97069431,member
92560A1DF4686CAB,classic_bike,2022-05-24T08:54:06Z,2022-05-24T09:13:01Z,Lewis Ave & Decatur St,4237.01,Hanson Pl & Ashland Pl,4395.07,40.6814598,-73.934903,40.68506807308177,-73.97790759801863,member
E5D663C5D4F8E299,electric_bike,2022-05-26T16:32:29Z,2022-05-26T16:37:07Z,W 67 St & Broadway,7116.04,Amsterdam Ave & W 79 St,7311.02,40.77492513,-73.98266566,40.7829391,-73.9786517,member
A750C4AC4B9E789C,classic_bike,2022-05-27T09:08:02Z,2022-05-27T09:12:58Z,E 40 St & Park Ave,6432.11,1 Ave & E 30 St,6079.03,40.750756,-73.978326,40.74144387,-73.97536082,member
F90831B966BF4AB3,classic_bike,2022-05-28T18:28:09Z,2022-05-28T18:30:58Z,Greenwich Ave & Charles St,5914.08,W 15 St & 6 Ave,5989.02,40.735238,-74.000271,40.738046142482766,-73.99642959237099,member
E301DC422EAD9820,classic_bike,2022-05-21T19:09:09Z,2022-05-21T19:22:51Z,Park Pl & Franklin Ave,4033.06,Pacific St & Classon Ave,4148.07,40.674181819,-73.956502438,40.6791944,-73.9587903,member
B87E728CD81DD6AC,electric_bike,2022-05-09T17:50:11Z,2022-05-09T17:57:26Z,West Broadway & Watts St,5569.07,Lafayette St & E 8 St,5788.13,40.72323,-74.00314,40.73020660529954,-73.99102628231049,member
20BA8D2C31C80505,classic_bike,2022-05-29T10:51:17Z,2022-05-29T11:08:11Z,Roebling St & N 4 St,5267.09,Marcy Ave & Lafayette Ave,4476.03,40.71469,-73.95739,40.6900815,-73.947915,member
73D78870D0E62B16,classic_bike,2022-05-22T17:07:35Z,2022-05-22T17:30:04Z,Old Fulton St,4903.08,Carroll St & Columbia St,4348.07,40.70277159,-73.99383605,40.6830456,-74.00348559,casual
66E95CF88E880D43,classic_bike,2022-05-28T15:27:27Z,2022-05-28T15:31:45Z,Broad St & Bridge St,4962.08,South St & Broad St,4920.13,40.70365182,-74.01167797,40.70188858913366,-74.01089876890182,casual
BF820DC47193CFB1,classic_bike,2022-05-10T09:33:43Z,2022-05-10T09:50:10Z,W 35 St & 9 Ave,6569.09,Cooper Square & Astor Pl,5712.03,40.75414519263519,-73.9960889518261,40.72951496224949,-73.99075269699097,member
D493EB8BF2EF8FCC,classic_bike,2022-05-29T16:37:59Z,2022-05-29T17:20:52Z,Broadway & Roebling St,5125.07,Water St & Main St,4936.14,40.70924826276157,-73.96063148975372,40.703212,-73.990409,member
75372516333F015D,electric_bike,2022-05-26T18:11:34Z,2022-05-26T18:33:06Z,E 40 St & 5 Ave,6474.11,E 84 St & 1 Ave,7180.02,40.752062307,-73.9816324043,40.77565541,-73.95068615,member
A6023B659E299B56,classic_bike,2022-05-22T16:16:44Z,2022-05-22T16:32:25Z,Union St & Nevins St,4143.03,DeKalb Ave & Vanderbilt Ave,4461.04,40.67909799721684,-73.98765474557877,40.68940747,-73.96885458,member
8EC308A1EA6BEF5C,electric_bike,2022-05-22T18:25:28Z,2022-05-22T18:38:58Z,Forsyth St & Canal St,5270.07,Duffield St & Willoughby St,4596.05,40.7158155,-73.99422366,40.69221589,-73.9842844,member
E1A37D37CDFDBC53,classic_bike,2022-05-20T13:34:44Z,2022-05-20T13:40:26Z,W 22 St & 10 Ave,6306.06,W 20 St & 7 Ave,6182.02,40.74691959,-74.00451887,40.74238787,-73.99726235,member
C6401323E8C71BCF,electric_bike,2022-05-31T11:21:53Z,2022-05-31T11:23:08Z,W 25 St & 6 Ave,6215.04,W 25 St & 6 Ave,6215.04,40.74395411,-73.99144871,40.74395411,-73.99144871,member
5FA6DFF1E4DF3F57,classic_bike,2022-05-16T14:28:57Z,2022-05-16T14:44:21Z,Washington St & Gansevoort St,6039.06,Greenwich Ave & Charles St,5914.08,40.739323,-74.008119,40.735238,-74.000271,casual
58BC5F73E9D9DA22,classic_bike,2022-05-10T18:52:30Z,2022-05-10T19:20:58Z,West Drive & Prospect Park West,3651.04,West Drive & Prospect Park West,3651.04,40.6610633719006,-73.97945255041122,40.6610633719006,-73.97945255041122,member
F74CC3C435E7A33A,classic_bike,2022-05-31T15:07:12Z,2022-05-31T15:13:28Z,Perry St & Bleecker St,5922.07,6 Ave & Broome St,5610.09,40.73535398,-74.00483091,40.72431,-74.00473,casual
E85294D43D4B4B4A,classic_bike,2022-05-12T14:45:56Z,2022-05-12T14:51:45Z,Broadway & W 53 St,6779.05,W 53 St & 10 Ave,6890.01,40.76344058,-73.98268129,40.76669671,-73.99061728,member
193F3B6EFE0EEB50,classic_bike,2022-05-05T22:28:45Z,2022-05-05T22:35:23Z,Fulton St & Clermont Ave,4386.05,Bergen St & 4 Ave,4322.06,40.68415748,-73.96922273,40.68256425759694,-73.9798977971077,member
858D1E4AE0A69AB4,classic_bike,2022-05-05T06:15:18Z,2022-05-05T06:17:37Z,Richardson St & N Henry St,5433.03,Graham Ave & Conselyea St,5291.05,40.71907891179564,-73.94223690032959,40.715143,-73.944507,member
B9E2E32EEBF6EA4E,classic_bike,2022-05-18T19:24:49Z,2022-05-18T19:40:34Z,7 Ave S & Bleecker St,5805.07,Fulton St & William St,5137.11,40.73213896287381,-74.00363802909851,40.70960089363537,-74.00655090808868,member
50846EACA957F69E,classic_bike,2022-05-18T06:34:44Z,2022-05-18T06:48:53Z,Featherbed Ln & Jerome Ave,8285.11,Jerome Ave & W Fordham Rd,8586.09,40.845505,-73.914311,40.86294,-73.90108,member
7DB9A4283106E3E3,electric_bike,2022-05-12T16:30:12Z,2022-05-12T16:50:31Z,North Moore St & Greenwich St,5470.12,Myrtle Ave & Fleet Pl,4628.07,40.72019521437465,-74.0103006362915,40.693534,-73.981909,member
952B916D3F1512E1,electric_bike,2022-05-31T20:46:46Z,2022-05-31T21:39:33Z,W 25 St & 6 Ave,6215.04,Marcus Garvey Blvd & Macon St,4278.03,40.74395411,-73.99144871,40.682601,-73.938037,member
438DB34FAAB17F4B,electric_bike,2022-05-04T21:19:02Z,2022-05-04T21:38:15Z,Market St & Cherry St,5198.04,Graham Ave & Conselyea St,5291.05,40.71076228,-73.99400398,40.715143,-73.944507,casual
E62C22662A09B26E,classic_bike,2022-05-13T01:37:30Z,2022-05-13T01:46:49Z,Meserole Ave & Manhattan Ave,5666.04,N 6 St & Bedford Ave,5379.1,40.72708584,-73.95299117,40.71745169,-73.95850939,member
C7FC357FAEA7CD56,electric_bike,2022-05-09T15:34:03Z,2022-05-09T16:07:41Z,Central Park S & 6 Ave,6876.04,University Pl & E 8 St,5755.14,40.76590936,-73.97634151,40.73143724085228,-73.99490341544151,casual
1DBC26B60C2CFCA6,classic_bike,2022-05-03T12:31:17Z,2022-05-03T12:43:46Z,Broadway & E 21 St,6098.1,Broadway & W 36 St,6441.01,40.739888408589955,-73.98958593606949,40.75097711,-73.98765428,member
E39392325BCBB040,classic_bike,2022-05-22T20:22:22Z,2022-05-22T20:40:12Z,Shore Blvd & Astoria Park,7271.01,31 Ave & 34 St,6819.15,40.77977,-73.923162,40.763154,-73.920827,casual
9914BF49E83E3959,electric_bike,2022-05-31T13:59:37Z,2022-05-31T14:03:58Z,1 Ave & E 78 St,7020.09,E 85 St & 3 Ave,7212.05,40.77140426,-73.9535166,40.77801203,-73.95407149,member
51AF8CF84AF83365,classic_bike,2022-05-29T08:49:34Z,2022-05-29T08:53:44Z,Fulton St & Adams St,4637.06,Front St & Washington St,4936.01,40.692643881,-73.98959136,40.70255088,-73.98940236,member
CCF0BD6C9797F254,electric_bike,2022-05-03T18:43:31Z,2022-05-03T19:03:15Z,31 Ave & 34 St,6819.15,Nassau Ave & Russell St,5581.01,40.763154,-73.920827,40.72557,-73.94434,member
9EC7140490FE1B85,classic_bike,2022-05-31T08:38:36Z,2022-05-31T08:54:12Z,Broadway & W 25 St,6173.08,Madison Av & E 51 St,6659.09,40.74286877312112,-73.98918628692627,40.75863,-73.97513,member
F31EB38A165BA85A,electric_bike,2022-05-24T19:17:34Z,2022-05-24T19:22:47Z,Nevins St & Schermerhorn St,4437.09,Fulton St & Clermont Ave,4386.05,40.68737247650719,-73.98176059126854,40.68415748,-73.96922273,member
69DCC58259A6DB7B,electric_bike,2022-05-06T14:18:05Z,2022-05-06T14:25:34Z,W 113 St & Broadway,7713.01,Lenox Ave & W 117 St,7655.22,40.805973,-73.964928,40.8025566,-73.9490782,member
F47F71C6C74B7EAE,electric_bike,2022-05-21T19:36:00Z,2022-05-21T20:13:34Z,Broadway\t& W 48 St,6708.04,Suffolk St & Stanton St,5445.02,40.76017739537783,-73.98486793041229,40.72066442,-73.98517977,casual
59DD6E58464CBEF4,classic_bike,2022-05-27T14:48:34Z,2022-05-27T15:06:24Z,8 Ave & W 33 St,6450.12,W 76 St & Columbus Ave,7281.09,40.751551,-73.993934,40.7801839724239,-73.97728532552719,member
59CB6938BBC06DF7,classic_bike,2022-05-30T10:28:47Z,2022-05-30T10:42:31Z,1 Ave & E 39 St,6303.01,E 66 St & Madison Ave,6969.08,40.74714,-73.97113,40.76800889305947,-73.96845281124115,member
CA2155494AEECCE3,electric_bike,2022-05-21T14:36:58Z,2022-05-21T14:48:15Z,William St & Pine St,5065.12,MacDougal St & Prince St,5687.04,40.70717936,-74.00887308,40.72710258,-74.00297088,member
512641E7BA2B36DA,classic_bike,2022-05-24T18:57:07Z,2022-05-24T19:06:05Z,Greenwich Ave & 8 Ave,6072.06,Lafayette St & E 8 St,5788.13,40.7390169121,-74.0026376103,40.73020660529954,-73.99102628231049,casual
663F6FF31EFC4AD4,electric_bike,2022-05-19T18:06:59Z,2022-05-19T18:22:10Z,8 Ave & W 31 St,6450.05,University Pl & E 8 St,5755.14,40.7505853470215,-73.9946848154068,40.73143724085228,-73.99490341544151,member
3ABF9D9D05890177,classic_bike,2022-05-04T08:31:23Z,2022-05-04T08:40:33Z,8 Ave & W 52 St,6816.07,E 41 St & Madison Ave (SE corner),6432.1,40.76370739,-73.9851615,40.752049,-73.979635,member
90AAF14D3E3FA993,classic_bike,2022-05-04T12:02:57Z,2022-05-04T12:19:32Z,E 188 St & Creston Ave,8566.05,Grand Concourse & E 161 St,8021.11,40.861669,-73.898589,40.82713380423556,-73.9227358996868,member
B9769060E493656F,classic_bike,2022-05-08T17:50:36Z,2022-05-08T17:56:28Z,5 Ave & E 93 St,7372.1,E 89 St & York Ave,7204.08,40.7857851,-73.957481,40.7779453,-73.946041,casual
37A365B21CA03ECF,classic_bike,2022-05-18T08:04:14Z,2022-05-18T08:10:40Z,1 Ave & E 68 St,6822.09,E 88 St & Park Ave,7293.1,40.764937162,-73.958155155,40.781410700190015,-73.95595908164978,member
C81DF2A8980E13BA,classic_bike,2022-05-21T15:27:37Z,2022-05-21T15:42:02Z,Bridge St & Water St,4968.03,Henry St & Atlantic Ave,4531.05,40.70296934155272,-73.98469090461731,40.69089272,-73.99612349,member
52E8B0ABEE6D1128,classic_bike,2022-05-02T08:47:13Z,2022-05-02T09:04:47Z,Central Park W & W 103 St,7577.27,E 58 St & 3 Ave,6762.02,40.79558954105342,-73.96188408136368,40.76095756,-73.96724467,member
6DACA2D01C369437,classic_bike,2022-05-05T17:01:02Z,2022-05-05T17:36:00Z,E 40 St & 5 Ave,6474.11,Central Park W & W 97 St,7538.18,40.752062307,-73.9816324043,40.79249519495111,-73.96417066463071,member
0FAB4AC8B95D55EE,classic_bike,2022-05-05T18:37:56Z,2022-05-05T18:54:50Z,Division Ave & Marcy Ave,5084.03,Front St & Gold St,4927.04,40.70708701,-73.95796783,40.70224,-73.982578,member
3CFE1EDAE9A363BB,classic_bike,2022-05-09T08:15:38Z,2022-05-09T08:48:18Z,8 Ave & W 49 St,6747.07,5 Ave & E 87 St,7323.09,40.76171227910671,-73.98655101656914,40.78232260730881,-73.95987510681152,casual
219A5F889D468AB7,electric_bike,2022-05-06T13:39:59Z,2022-05-06T13:54:48Z,Canal St & Rutgers St,5303.08,Driggs Ave & Lorimer St,5481.04,40.71427487,-73.98990025,40.72179134,-73.9504154,member
4525BB1FAB6698F8,electric_bike,2022-05-03T12:06:13Z,2022-05-03T12:06:16Z,5 Ave & E 103 St,7511.19,5 Ave & E 103 St,7511.19,40.7922553,-73.95249933,40.7922553,-73.95249933,member
366A1F132279E39A,electric_bike,2022-05-15T12:01:11Z,2022-05-15T12:10:43Z,Washington St & Barrow St,5847.08,Little West St & 1 Pl,5001.08,40.73191132323174,-74.008769094944,40.70569254,-74.01677685,casual
0589DFD1F4ADA1FE,classic_bike,2022-05-30T10:21:18Z,2022-05-30T10:46:49Z,Allen St & Rivington St,5414.06,5 Ave & E 72 St,7100.07,40.72019576,-73.98997825,40.77282817,-73.96685276,member
904BC1DE512C99B4,electric_bike,2022-05-03T11:39:49Z,2022-05-03T11:46:14Z,W 12 St & Hudson St,5997.1,W 26 St & 10 Ave,6382.05,40.73752993301071,-74.00558933615685,40.749717753,-74.002950346,member
619AF345673D8EC1,classic_bike,2022-05-18T11:21:02Z,2022-05-18T11:35:36Z,W 18 St & 9 Ave,6190.03,8 Ave & W 49 St,6747.07,40.7435337324616,-74.00367558002472,40.76171227910671,-73.98655101656914,member
8063C3FF2EA2A191,electric_bike,2022-05-15T17:08:36Z,2022-05-15T17:18:12Z,48 St & 37 Ave,6435.02,Crescent St & 30 Ave,6958.06,40.751555,-73.915026,40.768692,-73.9249574,member
6C7ADDC2D59E8D41,classic_bike,2022-05-06T12:19:34Z,2022-05-06T12:34:24Z,5 Ave & 3 St,3987.06,Franklin Ave & St Marks Ave,4107.05,40.6728155,-73.98352355,40.6758324,-73.9561677,member
6F0F214A3F060E21,classic_bike,2022-05-12T17:35:32Z,2022-05-12T17:46:40Z,Stanton St & Chrystie St,5523.02,Pike St & Monroe St,5159.04,40.72229346,-73.99147535,40.71173107,-73.99193043,member
69590633CA5210BB,classic_bike,2022-05-11T17:37:22Z,2022-05-11T18:27:21Z,5 Ave & E 103 St,7511.19,Central Park North & Adam Clayton Powell Blvd,7617.07,40.7922553,-73.95249933,40.799484,-73.955613,member
F55F97C61B2B7473,classic_bike,2022-05-02T18:44:39Z,2022-05-02T18:57:07Z,W 50 St & 9 Ave,6854.05,W 20 St & 7 Ave,6182.02,40.763604677958625,-73.98917958140373,40.74238787,-73.99726235,member
95BA465B4AEDAF3E,classic_bike,2022-05-26T18:22:29Z,2022-05-26T18:35:35Z,Central Park S & 6 Ave,6876.04,Central Park S & 6 Ave,6876.04,40.76590936,-73.97634151,40.76590936,-73.97634151,casual
DE8B4020D6C509AD,classic_bike,2022-05-21T06:58:03Z,2022-05-21T07:01:29Z,Lefferts Pl & Franklin Ave,4222.02,Franklin Ave & St Marks Ave,4107.05,40.680342423,-73.9557689392,40.6758324,-73.9561677,member
9B0FDE8EC375B04A,classic_bike,2022-05-27T13:39:28Z,2022-05-27T14:10:45Z,Thompson St & Bleecker St,5721.07,Grand St & Elizabeth St,5382.06,40.72840059450829,-73.99968780577183,40.718822,-73.99596,member
251D2A29A7BE677B,classic_bike,2022-05-16T10:18:02Z,2022-05-16T10:22:04Z,E 27 St & Park Ave S,6131.13,2 Ave & E 29 St,6122.09,40.74275179648995,-73.9847157150507,40.741723510974715,-73.97809267044067,member
0DDC70DC8F59CD13,classic_bike,2022-05-20T13:39:02Z,2022-05-20T13:42:36Z,Adam Clayton Powell Blvd & W 123 St,7704.04,Adam Clayton Powell Blvd & W 115 St,7643.18,40.8078316,-73.949373,40.802535,-73.9532423,member
3E1527BE2AFECC9E,classic_bike,2022-05-22T15:14:17Z,2022-05-22T15:32:13Z,Pioneer St & Van Brunt St,4169.04,Old Fulton St,4903.08,40.679043,-74.011169,40.70277159,-73.99383605,casual
48B5AAB846EFA232,classic_bike,2022-05-23T17:03:31Z,2022-05-23T17:11:39Z,6 Ave & W 33 St,6364.07,W 41 St & 8 Ave,6602.03,40.74901271,-73.98848395,40.75640548,-73.9900262,member
42827E4E4332F79A,classic_bike,2022-05-04T18:41:47Z,2022-05-04T19:00:57Z,W 13 St & 7 Ave,6030.04,W 43 St & 10 Ave,6756.01,40.73781509,-73.99994661,40.76009437,-73.99461843,member
7D095ECBD0FFC349,electric_bike,2022-05-14T05:09:44Z,2022-05-14T05:17:45Z,Broadway & Hancock St,4441.06,Forest Ave & Summerfield St,4798.02,40.68663,-73.9168,40.69922,-73.89795,casual
739C4A201FDECF82,classic_bike,2022-05-30T13:27:33Z,2022-05-30T13:35:50Z,Franklin St & W Broadway,5430.08,Greenwich Ave & Charles St,5914.08,40.71911552,-74.00666661,40.735238,-74.000271,member
09EBC29E0D7135D1,classic_bike,2022-05-20T09:15:18Z,2022-05-20T09:23:06Z,27 St & Hunter St,6310.06,40 Ave & Crescent St,6462.05,40.7485,-73.941275,40.7535992020056,-73.93795609474182,casual
84BB969E21EC59CD,classic_bike,2022-05-01T10:34:29Z,2022-05-01T11:05:51Z,West St & Chambers St,5329.03,Riverside Blvd & W 67 St,7183.03,40.71754834,-74.01322069,40.777507027547976,-73.98888587951659,casual
771CF03B41BFE206,classic_bike,2022-05-14T13:50:03Z,2022-05-14T13:55:16Z,W 29 St & 9 Ave,6416.06,W 24 St & 7 Ave,6257.03,40.7500727,-73.99839279,40.74487634,-73.99529885,casual
A403FA82FFDFC712,classic_bike,2022-05-12T20:22:20Z,2022-05-12T20:29:40Z,E 5 St & Ave A,5626.06,University Pl & E 8 St,5755.14,40.72479007746337,-73.98430064320564,40.73143724085228,-73.99490341544151,member
FB44EC6B2A82DAA3,classic_bike,2022-05-30T09:25:45Z,2022-05-30T09:42:28Z,5 Ave & E 63 St,6904.06,5 Ave & E 87 St,7323.09,40.766368,-73.971518,40.78232260730881,-73.95987510681152,casual
2A48AB5AEF982A1E,classic_bike,2022-05-21T11:06:22Z,2022-05-21T11:28:24Z,W 63 St & Broadway,7052.01,Broadway & W 41 St,6560.01,40.77163851,-73.98261428,40.75513557,-73.98658032,member
77015B76DA41BED5,classic_bike,2022-05-19T18:05:10Z,2022-05-19T18:05:33Z,Kenmare St & Elizabeth St,5453.06,Kenmare St & Elizabeth St,5453.06,40.72054,-73.9949,40.72054,-73.9949,member
52BA9FD3F78D282D,classic_bike,2022-05-31T08:22:48Z,2022-05-31T08:54:00Z,Riverside Dr & W 78 St,7340.06,LaGuardia Pl & W 3 St,5721.14,40.78414472,-73.98362492,40.72917025,-73.99810231,member
5AD6C54899723411,classic_bike,2022-05-12T07:51:22Z,2022-05-12T08:07:19Z,E 20 St & FDR Dr,5886.13,W 10 St & Washington St,5847.06,40.733208626522426,-73.9756813647,40.73342399437081,-74.00851495563984,member
1BCA0BD5F27201FC,classic_bike,2022-05-01T15:03:47Z,2022-05-01T15:06:44Z,Clinton St & 4 Place,4119.04,1 Pl & Clinton St,4193.14,40.6783563,-74.00014502,40.6809591,-73.99905709,member
D53B6E88EB9F418A,electric_bike,2022-05-29T15:28:28Z,2022-05-29T16:31:35Z,Mercer St & Spring St,5532.01,McGuinness Blvd & Eagle St,5977.01,40.72362738,-73.99949601,40.73555,-73.95284,member
8DB654C9057B6C04,classic_bike,2022-05-14T12:37:41Z,2022-05-14T13:11:23Z,Mercer St & Spring St,5532.01,W 16 St & The High Line,6233.05,40.72362738,-73.99949601,40.74334935,-74.00681753,casual
2A595B888F70E007,classic_bike,2022-05-31T14:52:54Z,2022-05-31T15:21:01Z,St James Pl & Pearl St,5167.06,St James Pl & Pearl St,5167.06,40.71117416,-74.00016545,40.71117416,-74.00016545,member
11EA6A040C09275D,classic_bike,2022-05-17T18:44:33Z,2022-05-17T18:54:48Z,Prospect Pl & Vanderbilt Ave,4157.15,6 Ave & 12 St,3803.05,40.67767534269111,-73.96902143955231,40.6663181,-73.9854617,member
B9E8618316637247,classic_bike,2022-05-23T17:11:32Z,2022-05-23T17:21:48Z,W 21 St & 6 Ave,6140.05,W 35 St & Dyer Ave,6569.08,40.74173969,-73.99415556,40.754691750226016,-73.99740189313889,member
2B5E1F9FA8380B43,classic_bike,2022-05-26T19:17:28Z,2022-05-26T19:49:54Z,Little West St & 1 Pl,5001.08,West St & Chambers St,5329.03,40.705756187,-74.016830921,40.71754834,-74.01322069,member
CAD1FB7A3F739F2A,classic_bike,2022-05-30T09:28:26Z,2022-05-30T09:33:28Z,W 50 St & 10 Ave,6890.06,Broadway & W 51 St,6779.04,40.764734200065185,-73.99194359779358,40.76228826,-73.98336183,member
F91B4BE2A336B078,electric_bike,2022-05-15T15:59:22Z,2022-05-15T16:12:23Z,W 148 St & Amsterdam Ave,8033.09,W 146 St & Broadway,8018.09,40.827075,-73.945909,40.826969,-73.949738,casual
04BDACD412E718F4,electric_bike,2022-05-05T11:45:53Z,2022-05-05T11:52:55Z,Central Park West & W 72 St,7141.07,Central Park W & W 97 St,7538.18,40.77579376683666,-73.9762057363987,40.79249519495111,-73.96417066463071,member
37210E98E09F5047,classic_bike,2022-05-25T15:29:37Z,2022-05-25T15:36:04Z,1 Ave & E 68 St,6822.09,E 63 St & 3 Ave,6830.02,40.76500525,-73.95818491,40.763954,-73.9646,member
7D1BC6C4D1D87F07,electric_bike,2022-05-19T13:51:58Z,2022-05-19T14:00:23Z,W 26 St & 8 Ave,6297.02,W 26 St & 8 Ave,6297.02,40.74734825,-73.99723551,40.74734825,-73.99723551,member
D0AC20476ED512EF,classic_bike,2022-05-12T13:50:40Z,2022-05-12T14:21:11Z,Mercer St & Spring St,5532.01,W 56 St & 6 Ave,6809.07,40.72362738,-73.99949601,40.76340613,-73.97722479,member
9BC9B8EDC7E4A7E8,electric_bike,2022-05-05T22:03:38Z,2022-05-05T22:10:16Z,W 89 St & Columbus Ave,7432.09,W 89 St & Columbus Ave,7432.09,40.7882213,-73.97041561,40.7882213,-73.97041561,member
94D02B662CA4AAF8,electric_bike,2022-05-04T07:35:12Z,2022-05-04T07:55:00Z,E 81 St & York Ave,7084.12,Adam Clayton Powell Blvd & W 123 St,7704.04,40.7728384,-73.94989233,40.8078316,-73.949373,member
AD07CDFFA0623379,classic_bike,2022-05-15T13:35:48Z,2022-05-15T13:37:42Z,31 Ave & 34 St,6819.15,31 Ave & 30 St,6857.09,40.763154,-73.920827,40.7647,-73.9240312,member
85A2F50788AE1858,electric_bike,2022-05-13T15:32:59Z,2022-05-13T16:04:31Z,W 42 St & Dyer Ave,6644.07,W 13 St & 7 Ave,6030.04,40.75898481399634,-73.99379968643188,40.73781509,-73.99994661,casual
8E382BD759E8D25A,classic_bike,2022-05-18T07:17:01Z,2022-05-18T07:29:44Z,W 22 St & 10 Ave,6306.06,Hudson Blvd E & W 36 St,6611.05,40.74691959,-74.00451887,40.75630628938069,-73.99951145061095,casual
BBDEA40C8AA01000,electric_bike,2022-05-11T18:13:24Z,2022-05-11T18:28:54Z,S 5 Pl & S 5 St,5125.03,DeKalb Ave & S Portland Ave,4546.04,40.710451,-73.960876,40.68981035,-73.97493121,member
6EE3E44142BF60CE,electric_bike,2022-05-08T11:40:22Z,2022-05-08T11:48:05Z,W 25 St & 6 Ave,6215.04,E 39 St & Lexington Ave,6389.09,40.74395411,-73.99144871,40.749498546025194,-73.97729203113158,casual
926082195E3C0157,classic_bike,2022-05-04T19:33:51Z,2022-05-04T19:37:21Z,W 35 St & 9 Ave,6569.09,W 29 St & 9 Ave,6416.06,40.75414519263519,-73.9960889518261,40.7500727,-73.99839279,member
05381CDD433A5A26,classic_bike,2022-05-18T12:55:54Z,2022-05-18T13:02:40Z,W 13 St & 5 Ave,5947.04,Broadway & E 21 St,6098.1,40.735445,-73.99431,40.739888408589955,-73.98958593606949,member
29983019D69023EC,classic_bike,2022-05-26T13:27:22Z,2022-05-26T13:33:23Z,E 20 St & 2 Ave,5971.08,E 16 St & 5 Ave,6022.04,40.73587678,-73.98205027,40.73726186,-73.99238967,casual
808BECF8BA87D00B,electric_bike,2022-05-05T09:30:13Z,2022-05-05T09:44:32Z,Madison St & Forest Ave,5025.02,Morgan Ave & Lombardy St,5503.01,40.70555,-73.90245,40.72226,-73.93889,member
E2162721C81EC730,classic_bike,2022-05-23T12:42:24Z,2022-05-23T13:00:09Z,Great Jones St,5636.11,W 48 St &  Rockefeller Plaza,6626.11,40.72743423,-73.99379025,40.75776935448309,-73.97929430007935,member
F3ABAFC9E77C1B07,classic_bike,2022-05-24T19:35:37Z,2022-05-24T20:56:47Z,W 111 St & 5 Ave,7587.16,Lenox Ave & W 117 St,7655.22,40.797672153,-73.94912076,40.8025566,-73.9490782,member
54498107AA645B20,classic_bike,2022-05-14T09:46:37Z,2022-05-14T09:57:19Z,E 11 St & 1 Ave,5746.14,E 33 St & 1 Ave,6197.08,40.72953837,-73.98426726,40.74322681432173,-73.97449783980846,member
AA92E1E7B543E9A7,classic_bike,2022-05-31T09:29:37Z,2022-05-31T09:35:27Z,Bergen St & Vanderbilt Ave,4157.1,St Johns Pl & Washington Ave,4001.09,40.6794388,-73.9680438,40.6737236,-73.9631611,member
ACB89DF6BA7DB93D,classic_bike,2022-05-03T20:44:24Z,2022-05-03T20:51:30Z,E 11 St & 3 Ave,5788.16,Broadway & W 25 St,6173.08,40.73127,-73.98849,40.74286877312112,-73.98918628692627,casual
B0FFBEE2BA429813,classic_bike,2022-05-03T09:03:53Z,2022-05-03T09:13:34Z,W 35 St & 9 Ave,6569.09,W 44 St & 5 Ave,6551.02,40.75414519263519,-73.9960889518261,40.75500254,-73.98014437,member
B942D9478F6399ED,classic_bike,2022-05-24T16:22:19Z,2022-05-24T16:27:00Z,Riverside Dr & W 82 St,7388.1,Riverside Dr & W 91 St,7524.16,40.78720869,-73.98128127,40.79313480986663,-73.97700369358063,member
DBCB12D81DCAFF8A,classic_bike,2022-05-21T07:27:00Z,2022-05-21T07:44:58Z,W 37 St & 10 Ave,6611.02,University Pl & E 8 St,5755.14,40.75660359,-73.9979009,40.73143724085228,-73.99490341544151,casual
516CD079A9863E22,classic_bike,2022-05-10T23:25:43Z,2022-05-10T23:42:44Z,Lexington Ave & E 29 St,6164.09,W 53 St & 10 Ave,6890.01,40.74311555376486,-73.98215353488922,40.76669671,-73.99061728,member
944FAB3C67C1BEC9,classic_bike,2022-05-01T15:42:02Z,2022-05-01T15:47:12Z,E 85 St & 3 Ave,7212.05,E 74 St & 1 Ave,6953.08,40.77801203,-73.95407149,40.7689738,-73.95482273,casual
B1EA4FA7AC03E651,classic_bike,2022-05-03T18:45:55Z,2022-05-03T18:46:23Z,31 St & 21 Ave,7202.07,31 St & 21 Ave,7202.07,40.77813,-73.90842,40.77813,-73.90842,member
67BDE630FFDA00B7,electric_bike,2022-05-03T06:05:03Z,2022-05-03T06:07:40Z,E 32 St & Park Ave,6280.12,E 40 St & Park Ave,6432.11,40.7457121,-73.98194829,40.750756,-73.978326,member
A0E2323FBF4C12EA,classic_bike,2022-05-22T16:41:48Z,2022-05-22T16:54:33Z,11 Ave & W 59 St,7059.01,W 35 St & 9 Ave,6569.09,40.77149671054441,-73.99046033620834,40.75414519263519,-73.9960889518261,member
DAFB481A7C24CACC,classic_bike,2022-05-27T23:14:22Z,2022-05-27T23:16:31Z,Hudson St & W 13 St,6115.06,Hudson St & W 13 St,6115.06,40.74005708567285,-74.0052741765976,40.74005708567285,-74.0052741765976,member
B5839AFB4DA3FC9E,electric_bike,2022-05-26T15:19:25Z,2022-05-26T15:41:34Z,Kent Ave & N 7 St,5489.03,Prospect Pl & 6 Ave,4166.08,40.72036775298455,-73.96165072917938,40.6793307,-73.97519523,member
4763AE72014931BF,classic_bike,2022-05-30T12:55:39Z,2022-05-30T13:31:37Z,Rivington St & Chrystie St,5453.01,E 54 St & 1 Ave,6608.09,40.72110063,-73.9919254,40.756265,-73.964179,member
7BA73D02EDC4735E,classic_bike,2022-05-05T20:27:41Z,2022-05-05T20:39:35Z,E 1 St & 1 Ave,5593.01,Mott St & Prince St,5561.04,40.72335597960796,-73.98864984512329,40.72317958,-73.99480012,casual
A574D87926BD1C32,electric_bike,2022-05-16T08:14:24Z,2022-05-16T08:46:24Z,Halsey St & Broadway,4366.01,47 Ave & 31 St,6151.03,40.68565,-73.91564,40.743,-73.93561,member
8153D86361A524E1,classic_bike,2022-05-04T18:31:02Z,2022-05-04T18:52:54Z,W 22 St & 8 Ave,6224.03,W 22 St & 8 Ave,6224.03,40.74475148,-73.99915362,40.74475148,-73.99915362,casual
256B4C7E5FA7B5BC,classic_bike,2022-05-30T02:48:29Z,2022-05-30T03:01:22Z,E 25 St & 2 Ave,6046.02,Roebling St & N 4 St,5267.09,40.738945484,-73.979774117,40.71469,-73.95739,member
4AB049860535B385,electric_bike,2022-05-10T19:37:28Z,2022-05-10T20:13:25Z,E 5 St & Avenue C,5545.04,E 2 St & Avenue C,5476.03,40.72299208,-73.97995466,40.7208736,-73.98085795,member
D0D8CA1DD22AD132,electric_bike,2022-05-04T20:55:53Z,2022-05-04T20:56:14Z,State St & Smith St,4522.07,State St & Smith St,4522.07,40.68917,-73.9886,40.68917,-73.9886,member
7456085CFC6157A7,classic_bike,2022-05-13T08:54:53Z,2022-05-13T08:57:56Z,Greenwich St & Perry St,5922.04,7 Ave S & Bleecker St,5805.07,40.73498,-74.00697,40.73213896287381,-74.00363802909851,member
919EE9E63ADB11EB,classic_bike,2022-05-28T17:58:36Z,2022-05-28T18:34:38Z,Centre St & Worth St,5279.03,Monroe St & Bedford Ave,4368.05,40.71494807,-74.00234482,40.6851443,-73.95380904,casual
01CF55ECCCD71DD4,classic_bike,2022-05-03T12:03:32Z,2022-05-03T12:08:41Z,Broadway & E 21 St,6098.1,Lafayette St & E 8 St,5788.13,40.739888408589955,-73.98958593606949,40.73020660529954,-73.99102628231049,member
932C321E60DBCAD0,classic_bike,2022-05-08T19:56:45Z,2022-05-08T20:17:45Z,Hudson St & Reade St,5359.1,Murray St & Greenwich St,5288.12,40.71625008,-74.0091059,40.71485150526251,-74.01122331619263,member
C0E33458038B43D6,classic_bike,2022-05-09T16:29:30Z,2022-05-09T16:32:16Z,Washington Pl & 6 Ave,5838.09,Barrow St & Hudson St,5805.05,40.73224119,-74.00026394,40.73172428,-74.00674436,member
4636C47C8224F954,classic_bike,2022-05-20T15:37:54Z,2022-05-20T15:56:52Z,E 23 St & 1 Ave,5929.01,Stanton St & Mangin St,5326.06,40.736502,-73.97809472,40.71782143,-73.97628939,member
81AACCEB12C286EF,classic_bike,2022-05-29T10:55:06Z,2022-05-29T10:57:45Z,E 16 St & Irving Pl,5938.11,E 22 St & 2 Ave,5971.09,40.735367055605394,-73.98797392845154,40.73716919369882,-73.98122549057007,member
D1E8777BA0CFFAF8,classic_bike,2022-05-03T09:14:58Z,2022-05-03T09:21:32Z,St Marks Pl & 1 Ave,5626.13,Lafayette St & Jersey St,5561.06,40.72779126,-73.98564945,40.72456089,-73.99565293,member
2AAAC6F0FF369288,electric_bike,2022-05-04T22:55:10Z,2022-05-04T23:08:36Z,Knickerbocker Ave & Cooper St,4582.05,Wilson Ave & Moffat St,4507.07,40.69081,-73.90448,40.68906,-73.90506,casual
BEA7487FB46527A2,classic_bike,2022-05-10T18:48:22Z,2022-05-10T19:02:58Z,Broadway & E 21 St,6098.1,W 30 St & 10 Ave,6459.07,40.739888408589955,-73.98958593606949,40.752694,-74.002353,member
E5B8B8EE4C48D472,classic_bike,2022-05-04T08:05:05Z,2022-05-04T08:19:48Z,Columbia St & Rivington St,5365.02,Columbia St & Rivington St,5365.02,40.71739973,-73.98016555,40.71739973,-73.98016555,member
8EC551F6F1BDCCD5,classic_bike,2022-05-04T12:27:21Z,2022-05-04T12:33:34Z,W 44 St & 5 Ave,6551.02,W 41 St & 8 Ave,6602.03,40.75500254,-73.98014437,40.75640548,-73.9900262,member
5E45B73BA481D2C0,classic_bike,2022-05-10T11:31:46Z,2022-05-10T11:37:04Z,E 16 St & Irving Pl,5938.11,1 Ave & E 18 St,5854.09,40.735367055605394,-73.98797392845154,40.733812191966315,-73.98054420948029,member
C737213F48197AB0,classic_bike,2022-05-09T19:21:20Z,2022-05-09T19:26:45Z,W 165 St & Fort Washington Ave,8226.05,Amsterdam Ave & W 152 St,8069.01,40.84004,-73.942939,40.829523,-73.944279,member
97BD8FCA825C0115,classic_bike,2022-05-22T08:50:56Z,2022-05-22T09:17:18Z,FDR Drive & E 35 St,6230.04,W 56 St & 10 Ave,6955.01,40.744219,-73.97121214,40.768254,-73.988639,member
C601202188E64BA3,classic_bike,2022-05-05T17:43:51Z,2022-05-05T18:27:31Z,Stanton St & Chrystie St,5523.02,Flatbush Ave & Ocean Ave,3704.04,40.72229346,-73.99147535,40.663657,-73.963014,casual
7E79F1EE1A1861AB,electric_bike,2022-05-28T20:41:11Z,2022-05-28T21:08:53Z,W 46 St & 11 Ave,6795.01,Riverside Dr & W 91 St,7524.16,40.76341379,-73.99667444,40.79313480986663,-73.97700369358063,member
5F7E27A30C7D1347,electric_bike,2022-05-28T15:33:49Z,2022-05-28T16:42:42Z,South St & Broad St,4920.13,Graham Ave & Conselyea St,5291.05,40.70188858913366,-74.01089876890182,40.715143,-73.944507,member
FA0AE811CEE5E36D,classic_bike,2022-05-18T06:44:30Z,2022-05-18T06:46:14Z,E 27 St & Park Ave S,6131.13,5 Ave & E 29 St,6248.06,40.74275179648995,-73.9847157150507,40.7451677,-73.98683077,member
AA84DCC0F7F3784A,electric_bike,2022-05-16T09:26:58Z,2022-05-16T09:36:28Z,Central Park West & W 85 St,7354.01,Grand Army Plaza & Central Park S,6839.1,40.78476,-73.969862,40.7643971,-73.97371465,member
CFBBE25667558FA6,electric_bike,2022-05-08T16:47:21Z,2022-05-08T17:01:12Z,Avenue C & E 18 St,5769.04,MacDougal St & Washington Sq,5797.01,40.730563,-73.973984,40.73226398,-73.99852205,member
6A0DB0BC438BD080,electric_bike,2022-05-13T10:42:31Z,2022-05-13T10:52:01Z,E 12 St & 3 Ave,5788.12,Grand St & Greene St,5500.02,40.73223272,-73.98889957,40.72170005235607,-74.00238141417502,member
8A0476D61BA42787,classic_bike,2022-05-23T16:53:36Z,2022-05-23T17:15:20Z,E 41 St & Madison Ave (SW corner),6474.12,Stanton St & Norfolk St,5445.07,40.752165280621966,-73.97992193698882,40.720747,-73.986274,member
19629D59ED94AEB6,classic_bike,2022-05-13T09:34:51Z,2022-05-13T09:37:10Z,Driggs Ave & N 9 St,5411.08,Roebling St & N 4 St,5267.09,40.71816969454208,-73.95520135760307,40.71469,-73.95739,member
0F598D769D9D8441,classic_bike,2022-05-13T15:15:46Z,2022-05-13T15:31:02Z,Underhill Ave & Lincoln Pl,4042.08,17 St & 5 Ave,3699.07,40.6740123,-73.9671457,40.663493,-73.991007,member
FFC83C3BB68DA79F,electric_bike,2022-05-13T16:50:29Z,2022-05-13T17:06:04Z,Broadway & E 21 St,6098.1,E 53 St & Madison Ave,6659.03,40.739888408589955,-73.98958593606949,40.7597108,-73.97402311,member
6E91D4066A84DCB9,electric_bike,2022-05-17T14:59:01Z,2022-05-17T15:29:58Z,E 128 St & Madison Ave,7735.23,Broadway & W 53 St,6779.05,40.80756,-73.939182,40.76344058,-73.98268129,member
131AF536DCB1B43F,classic_bike,2022-05-28T12:42:25Z,2022-05-28T12:49:59Z,30 St & 4 Ave,3564.04,17 St & 5 Ave,3699.07,40.657743,-74.001141,40.663493,-73.991007,member
CFFF302335EC70CE,classic_bike,2022-05-24T15:16:28Z,2022-05-24T15:21:17Z,Plaza St East & Flatbush Ave,4010.01,Eastern Pkwy & Franklin Ave,3919.07,40.673134,-73.969106,40.6707767,-73.9576801,casual
75F355DC147FE9B4,electric_bike,2022-05-21T11:37:09Z,2022-05-21T11:53:07Z,Center Blvd & 51 Ave,6179.07,Meserole Ave & Manhattan Ave,5666.04,40.743366080270214,-73.95960688591003,40.72708584,-73.95299117,casual
D9DAD89D0BF39E60,classic_bike,2022-05-29T19:10:58Z,2022-05-29T19:31:38Z,Centre St & Worth St,5279.03,Fulton St & Broadway,5175.08,40.71494807,-74.00234482,40.711066,-74.009447,casual
D26E6BF675D41002,classic_bike,2022-05-03T09:02:21Z,2022-05-03T09:09:15Z,E 5 St & Avenue C,5545.04,Cooper Square & Astor Pl,5712.03,40.72299208,-73.97995466,40.72951496224949,-73.99075269699097,member
4E5FE9D078312972,classic_bike,2022-05-09T17:58:46Z,2022-05-09T18:04:30Z,Lafayette St & Jersey St,5561.06,Christopher St & Greenwich St,5847.01,40.72456089,-73.99565293,40.73291553,-74.00711384,member
C564D3CE446A8E6E,classic_bike,2022-05-02T23:14:43Z,2022-05-02T23:31:47Z,Madison Ave & E 26 St,6131.12,E 14 St & 1 Ave,5779.1,40.742684734875695,-73.98671329021454,40.73139303364151,-73.98286700248718,casual
2E357AA15FD4C320,electric_bike,2022-05-24T11:42:31Z,2022-05-24T12:15:41Z,East End Ave & E 86 St,7113.08,Adam Clayton Powell Blvd & W 123 St,7704.04,40.77518615,-73.94446054,40.8078316,-73.949373,member
2F56FE304F4F7A38,classic_bike,2022-05-19T13:59:09Z,2022-05-19T14:17:24Z,Broadway & W 25 St,6173.08,E 58 St & 1 Ave (NE Corner),6682.03,40.742729783,-73.989055157,40.75892386377695,-73.96226227283478,member
52CA0684A8E24685,electric_bike,2022-05-07T11:47:08Z,2022-05-07T12:23:14Z,George St & Wilson Ave,4906.07,George St & Wilson Ave,4906.07,40.702997,-73.92997,40.702997,-73.92997,member
068A81FF2A958B0C,classic_bike,2022-05-21T23:46:56Z,2022-05-22T00:22:29Z,Sherman Ave & Thayer St,8583.02,Nagle Ave & Thayer St,8563.06,40.863124,-73.926994,40.861382,-73.925591,member
EFFEF6C95B83A3BD,classic_bike,2022-05-11T02:15:18Z,2022-05-11T02:29:54Z,Broadway\t& W 48 St,6708.04,W 89 St & Columbus Ave,7432.09,40.76017739537783,-73.98486793041229,40.7882213,-73.97041561,member
D041A48FE6674DD1,electric_bike,2022-05-02T23:53:13Z,2022-05-02T23:59:30Z,Central Park West & W 72 St,7141.07,W 56 St & 10 Ave,6955.01,40.77579376683666,-73.9762057363987,40.768254,-73.988639,member
8B721FF215864193,classic_bike,2022-05-11T17:32:41Z,2022-05-11T17:55:32Z,E 93 St & 2 Ave,7286.02,Lexington Ave & E 36 St,6313.1,40.782454175279874,-73.9489196240902,40.7475739589548,-73.9788007736206,member
963022296D2F75A3,electric_bike,2022-05-10T11:31:53Z,2022-05-10T11:50:21Z,8 Ave & W 49 St,6747.07,5 Ave & E 72 St,7100.07,40.76171227910671,-73.98655101656914,40.77282817,-73.96685276,member
0FB62C3AC239607C,electric_bike,2022-05-18T16:52:22Z,2022-05-18T17:01:07Z,Pier 40 - Hudson River Park,5696.03,Pier 40 - Hudson River Park,5696.03,40.7277140777778,-74.01129573583603,40.7277140777778,-74.01129573583603,casual
B8BFA0F0BE5D683C,electric_bike,2022-05-15T13:17:48Z,2022-05-15T13:28:09Z,11 Ave & W 27 St,6425.04,W 56 St & 10 Ave,6955.01,40.751396,-74.005226,40.768254,-73.988639,member
DD104493FD75ACF0,classic_bike,2022-05-10T23:40:59Z,2022-05-10T23:59:52Z,Washington Pl & Broadway,5755.01,E 7 St & Ave C,5545.01,40.72903917,-73.99404649,40.72412944090093,-73.97901266813278,casual
D47AF05A5003E22C,electric_bike,2022-05-08T10:38:11Z,2022-05-08T10:54:01Z,Stanton St & Chrystie St,5523.02,Clermont Ave & Park Ave,4692.01,40.72229346,-73.99147535,40.69573398,-73.97129668,member
6AB685BC110F7359,classic_bike,2022-05-13T08:42:05Z,2022-05-13T08:43:12Z,Grant Ave & E 169 St,8141.01,Grant Ave & E 169 St,8141.01,40.835900664,-73.913690448,40.83579,-73.913741,member
042233AA1E026CB9,classic_bike,2022-05-24T22:00:38Z,2022-05-24T22:27:32Z,W 17 St & 8 Ave,6148.02,Carlton Ave & Dean St,4199.12,40.741751075,-74.00143075,40.6809741,-73.9710097,member
2CC7BE94F1CD156B,electric_bike,2022-05-30T15:47:00Z,2022-05-30T16:40:20Z,Bank St & Washington St,5964.01,12 Ave & W 125 St,7886.02,40.7361967,-74.00859207,40.818299,-73.960405,casual
EFA68EFE0BFF149E,classic_bike,2022-05-30T04:39:30Z,2022-05-30T05:23:14Z,Wyckoff Av & Jefferson St,5051.01,Morgan Ave & Lombardy St,5503.01,40.707165,-73.923711,40.72226,-73.93889,member
51D4C60F728802A7,classic_bike,2022-05-24T18:00:20Z,2022-05-24T18:06:31Z,Broadway & W 29 St,6289.06,Lexington Ave & E 29 St,6164.09,40.7462009,-73.98855723,40.74311555376486,-73.98215353488922,member
3C5FD9A7DA4182AE,classic_bike,2022-05-25T06:29:35Z,2022-05-25T06:36:13Z,W 54 St & 11 Ave,6955.05,W 42 St & 8 Ave,6602.05,40.768333,-73.992573,40.7575699,-73.99098507,member
207C30778DA9C224,electric_bike,2022-05-11T10:00:36Z,2022-05-11T10:46:01Z,Forsyth St\t& Grand St,5382.07,Columbia Heights & Cranberry St,4829.01,40.71779817737835,-73.99316132068634,40.70037867,-73.99548059,casual
E5ABA5ACE5381D95,electric_bike,2022-05-13T18:32:32Z,2022-05-13T18:40:00Z,DeKalb Ave & Hudson Ave,4513.06,Adelphi St & Myrtle Ave,4620.02,40.689888,-73.981013,40.69308257,-73.97178913,member
AEDDDE1C3439D522,classic_bike,2022-05-15T14:02:44Z,2022-05-15T14:20:31Z,E 2 St & Avenue A,5553.1,W 10 St & Washington St,5847.06,40.72307749068673,-73.98583620786667,40.73342399437081,-74.00851495563984,casual
7D56DD586E76EACA,classic_bike,2022-05-26T09:53:42Z,2022-05-26T10:06:52Z,Grand Concourse & E 144 St,7845.06,Broadway & W 133 St,7903.02,40.816607833,-73.927839279,40.8190344,-73.956155999999993,member
CF486F0B3E38C5BE,docked_bike,2022-05-21T16:22:03Z,2022-05-21T16:40:31Z,Orchard St & Grand St,5343.11,E 6 St & 2 Ave,5669.12,40.717318,-73.990678,40.727379,-73.988408,casual
8C223D49B008A27A,classic_bike,2022-05-05T14:50:27Z,2022-05-05T15:14:03Z,Stagg St & Morgan Ave,5170.01,Wyckoff Av & Jefferson St,5051.01,40.710681,-73.93372,40.707165,-73.923711,casual
F35CA3F374DC88E1,electric_bike,2022-05-31T17:07:48Z,2022-05-31T17:17:49Z,2 Ave & E 122 St,7622.12,Melrose Ave & E 150 St,7879.01,40.8006721,-73.9349,40.816827,-73.917338,casual
3A9942192F7A244E,classic_bike,2022-05-15T18:46:31Z,2022-05-15T19:12:38Z,E 41 St & Madison Ave (SE corner),6432.1,W 17 St & 8 Ave,6148.02,40.752049,-73.979635,40.74177603,-74.00149746,member
258BD25BC0226B54,classic_bike,2022-05-02T13:27:50Z,2022-05-02T13:34:12Z,W 27 St & 7 Ave,6247.06,W 36 St & 9 Ave,6569.07,40.746647,-73.993915,40.75462324029105,-73.99516761302948,member
71ED8B819DBB6E1D,electric_bike,2022-05-02T16:11:58Z,2022-05-02T16:20:04Z,E 72 St & York Ave,6889.12,Amsterdam Ave & W 73 St,7260.09,40.76663814,-73.95348296,40.77966809007312,-73.98093044757842,member
11DF02C53A4383B7,classic_bike,2022-05-14T14:48:44Z,2022-05-14T14:50:18Z,E 40 St & Park Ave,6432.11,E 39 St & Lexington Ave,6389.09,40.750756,-73.978326,40.749498546025194,-73.97729203113158,member
4CAA21010E068D67,docked_bike,2022-05-22T11:03:24Z,2022-05-22T12:37:10Z,Roosevelt Island Tramway,6599.01,Roosevelt Island Tramway,6599.01,40.757284,-73.9536,40.757284,-73.9536,casual
EB0FAEB99536BDB3,classic_bike,2022-05-15T18:59:50Z,2022-05-15T19:07:49Z,Lafayette St & E 8 St,5788.13,6 Ave & Walker St,5430.1,40.73020660529954,-73.99102628231049,40.7197920901383,-74.0052238852195,casual
4BA29454F8261941,classic_bike,2022-05-10T12:43:10Z,2022-05-10T12:50:52Z,Amsterdam Ave & W 82 St,7360.1,W 63 St & Broadway,7052.01,40.78524672,-73.97667321,40.77163851,-73.98261428,member
A3A4AD89E3347EDD,classic_bike,2022-05-10T18:00:08Z,2022-05-10T18:05:47Z,Grand St & Samuel Dickstein Plaza,5335.07,Forsyth St\t& Grand St,5382.07,40.71511871996496,-73.98417055606842,40.71779817737835,-73.99316132068634,member
2235E61CD926E383,classic_bike,2022-05-16T10:22:28Z,2022-05-16T10:33:43Z,E 6 St & Avenue B,5584.04,W 11 St & 6 Ave,5914.03,40.72453734,-73.98185424,40.73532427,-73.99800419,member
8D9249208DDB7EF1,electric_bike,2022-05-22T03:36:07Z,2022-05-22T03:45:56Z,Greene Ave & Grandview Ave,5106.04,Suydam St & Broadway,4689.03,40.709697,-73.907856,40.69544,-73.93223,casual
448708A191A24011,classic_bike,2022-05-23T16:18:40Z,2022-05-23T16:25:20Z,Cliff St & Fulton St,5065.14,Hudson St & Reade St,5359.1,40.70838,-74.00495,40.71625008,-74.0091059,member
50F0C09389230AE3,classic_bike,2022-05-02T14:29:50Z,2022-05-02T14:41:08Z,Division St & Bowery,5270.08,E 4 St & 2 Ave,5593.04,40.714193,-73.996732,40.7262807,-73.98978041,member
218195BB90D2B4F9,classic_bike,2022-05-18T10:03:25Z,2022-05-18T10:07:40Z,E 27 St & Park Ave S,6131.13,W 27 St & 7 Ave,6247.06,40.74275179648995,-73.9847157150507,40.746647,-73.993915,member
BAA39D639C576157,classic_bike,2022-05-21T10:43:18Z,2022-05-21T13:57:03Z,Central Park W & W 91 St,7453.01,Columbus Ave & W 72 St,7175.05,40.78866499127883,-73.96680057048798,40.7770575,-73.97898475,casual
77CD082CC91A2E57,electric_bike,2022-05-08T13:04:17Z,2022-05-08T13:05:04Z,Greenwich St & Rector St,5073.07,Greenwich St & Rector St,5073.07,40.70806582380646,-74.0135595202446,40.70806582380646,-74.0135595202446,member
5FC47B52A0ABE7F3,electric_bike,2022-05-30T13:57:34Z,2022-05-30T14:03:05Z,Sterling St & Bedford Ave,3665.06,Eastern Pkwy & Franklin Ave,3919.07,40.6627059,-73.9569115,40.6707767,-73.9576801,member
110E63C4C10DB0BB,classic_bike,2022-05-10T17:46:12Z,2022-05-10T17:54:16Z,E 97 St & 3 Ave,7365.08,Central Park W & W 97 St,7538.18,40.785701036,-73.948445082,40.79249519495111,-73.96417066463071,member
F0A68E43CEBA33BB,classic_bike,2022-05-05T18:19:12Z,2022-05-05T18:24:22Z,Lenox Ave & W 133 St,7790.04,Lenox Ave & W 144 St,7910.01,40.81296,-73.941878,40.819783,-73.936521,member
32B09455FB6B986D,electric_bike,2022-05-19T19:07:01Z,2022-05-19T19:31:19Z,Willoughby Ave & Wyckoff Ave,5010.02,Madison St & Montgomery St,5262.09,40.705614,-73.92153,40.713126,-73.984844,member
3B907F5DC7149959,classic_bike,2022-05-05T17:33:11Z,2022-05-05T17:46:34Z,6 Ave & W 45 St,6593.15,3 Ave & E 72 St,7028.04,40.756951,-73.982631,40.7699426,-73.96060712,casual
7E34676FA8557D86,electric_bike,2022-05-18T10:43:43Z,2022-05-18T10:51:51Z,St James Pl & Pearl St,5167.06,Broad St & Bridge St,4962.08,40.71117416,-74.00016545,40.70365182,-74.01167797,member
9503B0FFF7955E0A,classic_bike,2022-05-14T08:59:59Z,2022-05-14T09:06:18Z,Crescent St & Broadway,6827.11,28 St & 41 Ave,6462.19,40.7633589,-73.9286471,40.751047,-73.937970000000007,member
D7AF058E1F52E3AC,classic_bike,2022-05-22T00:30:35Z,2022-05-22T00:37:00Z,Lewis Ave & Madison St,4425.02,Willoughby Ave & Tompkins Ave,4665.02,40.686312,-73.935775,40.69425403,-73.94626915,casual
351497E789A3FAA0,electric_bike,2022-05-10T14:36:36Z,2022-05-10T15:04:05Z,7 Ave & Central Park South,6912.01,E 88 St & Park Ave,7293.1,40.7667405590595,-73.9790689945221,40.781410700190015,-73.95595908164978,member
88B83DFF52EEAD9C,electric_bike,2022-05-17T21:58:11Z,2022-05-17T22:26:10Z,E 13 St & 2 Ave,5820.08,4 Ave & 9 St,3955.05,40.73153937464073,-73.9853024482727,40.6705135,-73.98876585,casual
4744FB62E3CD84D9,classic_bike,2022-05-21T19:01:52Z,2022-05-21T19:43:35Z,8 St & Astoria Blvd,7068.07,Ditmars Blvd & 19 St,7291.06,40.7725996921817,-73.93266275525093,40.78145,-73.9183302,member
63AC5EF7E3DA20DD,electric_bike,2022-05-19T19:33:36Z,2022-05-19T19:57:07Z,Hicks St & Montague St,4645.09,Clinton St & Grand St,5303.06,40.69512845,-73.99595065,40.71559509,-73.9870295,member
8CCBB2B926B93960,classic_bike,2022-05-18T19:01:17Z,2022-05-18T19:11:29Z,Lafayette Ave & Classon Ave,4452.01,Bergen St & Flatbush Ave,4281.08,40.68900443,-73.96023854,40.680944723477296,-73.97567331790923,member
B939CB9604B4C8F2,classic_bike,2022-05-09T16:19:07Z,2022-05-09T16:35:43Z,Clinton St & Grand St,5303.06,West Thames St,5114.06,40.71559509,-73.9870295,40.70834698,-74.01713445,member
F60669FAE967E943,classic_bike,2022-05-13T17:47:19Z,2022-05-13T18:23:38Z,Irving Ave & Jefferson St,5051.02,45 Ave & 21 St,6319.07,40.70538,-73.92535,40.74737075646803,-73.94777297973631,member
1C9D6C6DE7182566,classic_bike,2022-05-25T17:23:25Z,2022-05-25T17:26:09Z,Liberty St & Nassau St,5105.09,Vesey St & Church St,5216.06,40.70858894240581,-74.00935482235809,40.71221958009051,-74.01047229766846,member
ED8EFD5957E4D03D,classic_bike,2022-05-25T18:34:49Z,2022-05-25T18:36:58Z,E 7 St & Avenue A,5626.07,E 2 St & Avenue A,5553.1,40.72621788,-73.98379855,40.72307749068673,-73.98583620786667,member
B475FD866373745B,classic_bike,2022-05-27T13:50:43Z,2022-05-27T14:09:28Z,Fulton St & Waverly Ave,4345.11,S 3 St & Bedford Ave,5235.05,40.683238654603414,-73.96599590778351,40.71260486,-73.96264403,member
870AC4586FB543DB,electric_bike,2022-05-28T16:18:37Z,2022-05-28T16:36:53Z,1 Ave & E 6 St,5626.15,W 25 St & 6 Ave,6215.04,40.72633085971696,-73.98616880178452,40.74395411,-73.99144871,member
65896CE2BA0CEAE3,classic_bike,2022-05-31T18:38:51Z,2022-05-31T18:42:40Z,W 41 St & 8 Ave,6602.03,11 Ave & W 41 St,6726.01,40.75640548,-73.9900262,40.76030096,-73.99884222,member
156E95CC40392FB1,docked_bike,2022-05-22T11:16:57Z,2022-05-22T12:06:12Z,Water St & Main St,4936.14,Broadway & W 36 St,6441.01,40.703212,-73.990409,40.750977,-73.987654,casual
7566F9585CF95B9F,electric_bike,2022-05-01T16:14:39Z,2022-05-01T16:43:36Z,Thompson St & Bleecker St,5721.07,Banker St & Meserole Ave,5633.04,40.72840059450829,-73.99968780577183,40.72606,-73.95621,member
5EE85CA67D1A71AF,classic_bike,2022-05-18T20:37:44Z,2022-05-18T20:43:57Z,E 30 St & Park Ave S,6206.08,E 16 St & 5 Ave,6022.04,40.74444921,-73.98303529,40.73726186,-73.99238967,member
E3C3D4C5466ECCA2,classic_bike,2022-05-25T15:26:16Z,2022-05-25T15:28:13Z,E 33 St & 1 Ave,6197.08,FDR Drive & E 35 St,6230.04,40.74322681432173,-73.97449783980846,40.744219,-73.97121214,member
E392B50277DC3D7C,classic_bike,2022-05-17T18:49:19Z,2022-05-17T19:01:35Z,6 Ave & 12 St,3803.05,Hanson Pl & Ashland Pl,4395.07,40.666302681,-73.985322118,40.68506807308177,-73.97790759801863,member
283ACDE51D1B8F22,classic_bike,2022-05-03T08:31:08Z,2022-05-03T08:36:37Z,E 89 St & York Ave,7204.08,E 85 St & 3 Ave,7212.05,40.7779453,-73.946041,40.77801203,-73.95407149,member
B46C3018F5303A5B,electric_bike,2022-05-27T11:19:09Z,2022-05-27T11:29:47Z,W 147 St & Adam Clayton Powell Blvd,7971.07,River Ave & E 151 St,7967.04,40.82281,-73.937413,40.822217,-73.928939,member
77B6022B734C8368,electric_bike,2022-05-24T18:08:00Z,2022-05-24T18:24:45Z,Vesey St & Church St,5216.06,3 St & 3 Ave,4028.03,40.71221958009051,-74.01047229766846,40.6750705,-73.98775226,member
11201EE492C9062C,classic_bike,2022-05-31T10:18:02Z,2022-05-31T11:07:18Z,Greenwich St & Rector St,5073.07,Madison Ave & E 82 St,7188.13,40.70806582380646,-74.0135595202446,40.7781314,-73.96069399,casual
5DCBDF41671B60DB,classic_bike,2022-05-05T13:41:59Z,2022-05-05T13:54:06Z,E 48 St & 3 Ave,6541.03,E 47 St & 2 Ave,6498.1,40.7546011026,-73.971878855,40.75323098,-73.97032517,casual
B98979751C2472D6,classic_bike,2022-05-11T08:34:20Z,2022-05-11T08:38:26Z,E 7 St & Ave C,5545.01,E 13 St & Avenue A,5779.09,40.72412944090093,-73.97901266813278,40.72966729392978,-73.98067966103554,member
A8F75A6ED9C9CD54,electric_bike,2022-05-02T02:19:00Z,2022-05-02T02:22:04Z,Broadway & W 25 St,6173.08,W 20 St & 7 Ave,6182.02,40.74286877312112,-73.98918628692627,40.74238787,-73.99726235,member
9D1C718CF4A9C0C5,classic_bike,2022-05-20T22:16:40Z,2022-05-20T22:26:20Z,E 16 St & 5 Ave,6022.04,E 5 St & Ave A,5626.06,40.73726186,-73.99238967,40.72479007746337,-73.98430064320564,member
DDA416BB13C2AB97,classic_bike,2022-05-31T18:28:11Z,2022-05-31T18:35:03Z,Broadway & W 38 St,6560.15,12 Ave & W 40 St,6765.01,40.7529728216068,-73.98734897375107,40.76087502,-74.00277668,casual
56114123EBFDAEB8,classic_bike,2022-05-03T13:29:09Z,2022-05-03T13:36:47Z,E 10 St & Avenue A,5659.05,E 23 St & 1 Ave,5929.01,40.72740794,-73.98142006,40.736502,-73.97809472,member
20052C64A3C77E55,classic_bike,2022-05-28T16:34:13Z,2022-05-28T17:38:24Z,8 Ave & W 27 St,6297.07,Carroll St & 6 Ave,4019.06,40.748219848,-73.996475339,40.6740886,-73.9787282,member
4D01755048F4A9F5,classic_bike,2022-05-21T15:43:27Z,2022-05-21T15:59:36Z,8 Ave & W 38 St,6526.05,Broadway\t& W 48 St,6708.04,40.75461,-73.99177,40.76017739537783,-73.98486793041229,casual
7A569710831C0847,electric_bike,2022-05-17T14:33:13Z,2022-05-17T14:36:33Z,Graham Ave & Withers St,5403.04,Bayard St & Leonard St,5442.05,40.7169811,-73.94485918,40.71915571696044,-73.94885390996933,member
D9A261A13BCC3CA8,classic_bike,2022-05-12T15:29:06Z,2022-05-12T15:33:33Z,Van Sinderen Ave & Truxton St,4161.01,Rockaway Ave & Bainbridge St,4285.09,40.67847538,-73.903759837,40.68319988172761,-73.91166642308235,member
98B0A6653CD4F30E,classic_bike,2022-05-01T12:41:49Z,2022-05-01T13:02:12Z,Central Park W & W 91 St,7453.01,W 54 St & 9 Ave,6920.03,40.78866499127883,-73.96680057048798,40.76584941,-73.98690506,casual
9EF4D4B34EC6EE3F,electric_bike,2022-05-30T15:02:00Z,2022-05-30T15:28:28Z,West St & Chambers St,5329.03,W 35 St & 9 Ave,6569.09,40.71754834,-74.01322069,40.75414519263519,-73.9960889518261,member
9ACF0487B727A9E0,classic_bike,2022-05-19T20:19:33Z,2022-05-19T20:23:41Z,W 17 St & 8 Ave,6148.02,W 15 St & 7 Ave,6030.06,40.74177603,-74.00149746,40.73935542,-73.99931783,member
46089C010167E465,classic_bike,2022-05-24T18:04:15Z,2022-05-24T18:17:51Z,Broadway & W 29 St,6289.06,W Broadway & Spring St,5569.06,40.7462009,-73.98855723,40.72494672359416,-74.00165855884552,member
F74C4F20964C1D80,classic_bike,2022-05-15T15:37:20Z,2022-05-15T15:46:00Z,E 25 St & 2 Ave,6046.02,E 6 St & 2 Ave,5669.12,40.73912601,-73.97973776,40.727378693232225,-73.98840844631195,casual
EAE9033015B24F8A,classic_bike,2022-05-20T15:05:08Z,2022-05-20T15:10:48Z,Roosevelt Island Tramway,6599.01,Southpoint Park,6566.01,40.757284,-73.9536,40.75370225419114,-73.95865201950072,member
67B9851DE9EE37E4,electric_bike,2022-05-14T21:18:36Z,2022-05-14T21:43:12Z,University Pl & E 8 St,5755.14,Broadway & Berry St,5164.04,40.73143724085228,-73.99490341544151,40.71044554,-73.96525063,member
21BEEF212861D759,classic_bike,2022-05-22T15:46:27Z,2022-05-22T16:25:38Z,E 2 St & Avenue B,5515.02,West St & Liberty St,5184.08,40.72217444,-73.98368779,40.711444,-74.014847,casual
F16025578739E2A8,classic_bike,2022-05-13T08:21:19Z,2022-05-13T08:33:36Z,11 Ave & W 59 St,7059.01,W 55 St & 6 Ave,6809.09,40.77149671054441,-73.99046033620834,40.763189,-73.978434,member
1C9D4E15913C20BD,classic_bike,2022-05-31T10:04:48Z,2022-05-31T10:17:59Z,Monroe St & Tompkins Ave,4434.06,Harrison Pl & Porter Ave,5090.06,40.686203,-73.944694,40.70686,-73.92851,member
B710B4F941610DAF,classic_bike,2022-05-17T12:39:36Z,2022-05-17T14:30:58Z,Clinton St & Grand St,5303.06,Clinton St & Grand St,5303.06,40.71559509,-73.9870295,40.71559509,-73.9870295,member
6B28A3AF504E7A46,classic_bike,2022-05-22T12:09:00Z,2022-05-22T12:12:32Z,E 13 St & Avenue A,5779.09,E 13 St & 2 Ave,5820.08,40.72966729392978,-73.98067966103554,40.73153937464073,-73.9853024482727,casual
312C47C64F8914B7,classic_bike,2022-05-27T19:30:45Z,2022-05-27T20:07:48Z,Forsyth St & Canal St,5270.07,E 48 St & 5 Ave,6626.01,40.7158155,-73.99422366,40.75724567911726,-73.97805914282799,casual
C0843DE12EF4788D,classic_bike,2022-05-23T18:25:48Z,2022-05-23T19:02:13Z,E 77 St & 3 Ave,7092.06,E 6 St & 2 Ave,5669.12,40.77314236,-73.95856158,40.727378693232225,-73.98840844631195,casual
39BCC3EA7B641525,electric_bike,2022-05-31T19:08:28Z,2022-05-31T19:24:38Z,India St Pier,5794.05,India St Pier,5794.05,40.731734785883454,-73.9612390102593,40.731734785883454,-73.9612390102593,casual
6F1CDC9536A8F9D2,classic_bike,2022-05-14T14:01:21Z,2022-05-14T14:09:25Z,E 40 St & Park Ave,6432.11,W 51 St & 6 Ave,6740.1,40.750756,-73.978326,40.7606597,-73.98042047,member
0EE6C285E5D1F9A4,classic_bike,2022-05-29T22:43:20Z,2022-05-29T22:53:41Z,Bushwick Ave & Powers St,5250.05,Montrose Ave & Bushwick Ave,5068.02,40.71247661,-73.94100005,40.70767788,-73.94016171,casual
7ED03ECDD957F6F4,classic_bike,2022-05-05T18:42:59Z,2022-05-05T18:54:37Z,W 55 St & 6 Ave,6809.09,E 77 St & 3 Ave,7092.06,40.763189,-73.978434,40.77314236,-73.95856158,member
986887578C001564,classic_bike,2022-05-21T20:46:51Z,2022-05-21T21:05:21Z,W 70 St & Amsterdam Ave,7207.08,Central Park West & W 72 St,7141.07,40.777364612,-73.982891321,40.77579376683666,-73.9762057363987,member
B1D5EF23CD7D683C,classic_bike,2022-05-05T10:29:31Z,2022-05-05T10:52:12Z,Madison St & Clinton St,5190.07,E 31 St & 3 Ave,6239.08,40.71269042,-73.98776323,40.74394314,-73.97966069,member
CCA93B180C6E1BA3,classic_bike,2022-05-10T15:59:27Z,2022-05-10T16:08:43Z,Central Park West & W 68 St,7079.06,Broadway & W 61 St,7014.12,40.7734066,-73.97782542,40.77003010255044,-73.9819684624672,member
73C2A665945FA02A,classic_bike,2022-05-17T19:15:53Z,2022-05-17T19:20:39Z,W 100 St & Manhattan Ave,7538.14,Lenox Ave & W 111 St,7602.05,40.795,-73.9645,40.7987859,-73.9523,member
7814CD041FBFDD89,electric_bike,2022-05-12T14:48:30Z,2022-05-12T14:56:06Z,E 53 St & Madison Ave,6659.03,W 54 St & 11 Ave,6955.05,40.7597108,-73.97402311,40.768333,-73.992573,member
EB120A452FB853D6,classic_bike,2022-05-03T12:29:43Z,2022-05-03T12:50:49Z,St Marks Pl & 2 Ave,5669.1,West St & Liberty St,5184.08,40.7284186,-73.98713956,40.711444,-74.014847,casual
75669092EDCE8790,classic_bike,2022-05-29T16:26:39Z,2022-05-29T16:34:31Z,Devoe St & Lorimer St,5259.06,Stagg St & Morgan Ave,5170.01,40.71335226222875,-73.9491033554077,40.710681,-73.93372,member
E68E1FC7A868D57E,electric_bike,2022-05-01T14:15:17Z,2022-05-01T14:53:57Z,W 51 St & 6 Ave,6740.1,Bedford Ave & Nassau Ave,5550.05,40.7606597,-73.98042047,40.72311651,-73.95212324,member
06FF5B5D81D7D770,classic_bike,2022-05-21T20:16:18Z,2022-05-21T20:20:21Z,W 22 St & 10 Ave,6306.06,W 22 St & 8 Ave,6224.03,40.74691959,-74.00451887,40.74475148,-73.99915362,member
880E11BFBA00C2AA,classic_bike,2022-05-25T08:25:33Z,2022-05-25T08:33:21Z,E 56 St & Madison Ave,6732.01,Grand Army Plaza & Central Park S,6839.1,40.761573,-73.972628,40.7643971,-73.97371465,member
BFC423E63E8D04DE,electric_bike,2022-05-10T18:57:32Z,2022-05-10T20:11:36Z,Central Park North & Adam Clayton Powell Blvd,7617.07,Central Park North & Adam Clayton Powell Blvd,7617.07,40.799484,-73.955613,40.799484,-73.955613,casual
0EA3C9F6326899A7,classic_bike,2022-05-05T10:32:36Z,2022-05-05T10:35:55Z,E 1 St & 1 Ave,5593.01,E 7 St & Avenue A,5626.07,40.72335597960796,-73.98864984512329,40.72621788,-73.98379855,member
961B8E9A4FE76B1D,classic_bike,2022-05-17T16:17:07Z,2022-05-17T16:31:16Z,E 27 St & 1 Ave,6004.06,E 14 St & Avenue B,5736.09,40.739445,-73.976806,40.72938685,-73.97772429,member
E498EE73082E84F2,electric_bike,2022-05-30T17:24:20Z,2022-05-30T17:35:36Z,Lafayette Ave & Classon Ave,4452.01,Plaza St West & Flatbush Ave,4010.13,40.68900443,-73.96023854,40.6750207,-73.97111473,casual
1052E2E558C777D6,electric_bike,2022-05-18T17:48:58Z,2022-05-18T17:52:25Z,47 Ave & Skillman Ave,6237.01,49 Ave & 21 St,6128.04,40.7437524099784,-73.94176483154297,40.74252,-73.948852,member
82B6FD2CE8280110,classic_bike,2022-05-10T15:37:38Z,2022-05-10T15:47:25Z,Fulton St & Waverly Ave,4345.11,Eastern Pkwy & Franklin Ave,3919.07,40.683238654603414,-73.96599590778351,40.6707767,-73.9576801,casual
8D4D5D28CA3C60E1,classic_bike,2022-05-18T19:04:08Z,2022-05-18T19:13:04Z,Melrose St & Broadway,4801.04,Cedar St & Myrtle Ave,4751.01,40.697481,-73.935877,40.697842,-73.926241,member
6B08CEF8085C5DA0,classic_bike,2022-05-24T15:26:17Z,2022-05-24T15:28:06Z,Goulden Ave & Bedford Park Blvd W,8738.01,Bedford Park Blvd & Paul Ave,8752.01,40.87387,-73.89533,40.87444,-73.89186,member
A8CA3E5C31F88598,electric_bike,2022-05-13T14:58:49Z,2022-05-13T15:12:06Z,E 51 St & 2 Ave,6575.03,2 Ave & E 31 St,6197.02,40.755293,-73.967641,40.74290902,-73.97706058,member
601D363BCC818EBA,electric_bike,2022-05-26T08:39:07Z,2022-05-26T08:57:35Z,49 St & 31 Ave,6662.01,46 Ave & 5 St,6286.02,40.758057,-73.909831,40.74731,-73.95451,member
863A4794AE4F4899,classic_bike,2022-05-22T18:48:12Z,2022-05-22T19:29:53Z,5 Ave & E 93 St,7372.1,5 Ave & E 93 St,7372.1,40.7857851,-73.957481,40.7857851,-73.957481,member
B6BB070D79EFB1CA,classic_bike,2022-05-04T11:22:37Z,2022-05-04T12:01:09Z,Kent Ave & N 7 St,5489.03,6 Ave & W 33 St,6364.07,40.72036775298455,-73.96165072917938,40.74901271,-73.98848395,member
C9E6B5E1DB9C076A,classic_bike,2022-05-21T10:19:21Z,2022-05-21T10:33:40Z,W 42 St & Dyer Ave,6644.07,E 59 St & Madison Ave,6801.01,40.75898481399634,-73.99379968643188,40.76350532,-73.97109243,member
963DF8D07396E556,electric_bike,2022-05-13T18:00:28Z,2022-05-13T18:26:57Z,W 106 St & Amsterdam Ave,7634.01,Bank St & Washington St,5964.01,40.8008363,-73.9664492472,40.7361967,-74.00859207,member
4D66DA85C5015E62,classic_bike,2022-05-22T17:42:28Z,2022-05-22T17:59:38Z,DeKalb Ave & Hudson Ave,4513.06,Bedford Ave & Bergen St,4066.15,40.689888,-73.981013,40.676368,-73.952918,member
FEDFCB2B5F64EFC0,classic_bike,2022-05-24T16:55:33Z,2022-05-24T17:05:58Z,5 Av & W 139 St,7851.04,E 157 St & River Ave,8005.03,40.815484,-73.935856,40.825737,-73.927311,member
A12D69A2CBC56298,electric_bike,2022-05-01T20:10:21Z,2022-05-01T20:13:21Z,Lafayette St & Jersey St,5561.06,Bleecker St & Crosby St,5679.08,40.72456089,-73.99565293,40.72615604980408,-73.99510189890862,member
2E3DBCC2D0EAE9D6,classic_bike,2022-05-21T18:31:17Z,2022-05-21T18:48:24Z,Central Park North & Adam Clayton Powell Blvd,7617.07,Central Park North & Adam Clayton Powell Blvd,7617.07,40.799484,-73.955613,40.799484,-73.955613,member
D4CFF338C5989CF0,classic_bike,2022-05-24T18:18:04Z,2022-05-24T18:34:12Z,Tompkins Ave & Hopkins St,4850.04,Franklin Ave & St Marks Ave,4107.05,40.69957608,-73.94708417,40.6758324,-73.9561677,casual
A9B0F79370A41617,electric_bike,2022-05-04T13:11:52Z,2022-05-04T13:24:32Z,University Pl & E 8 St,5755.14,W 42 St & 6 Ave,6517.08,40.73143724085228,-73.99490341544151,40.75492,-73.98455,member
BBE990D533FEA818,classic_bike,2022-05-29T13:54:26Z,2022-05-29T15:20:23Z,St Marks Pl & 4 Ave,4249.1,Vesey St & Church St,5216.06,40.68177810928762,-73.97988975048065,40.71221958009051,-74.01047229766846,casual
9A5F6C25CB9727A7,classic_bike,2022-05-04T23:42:29Z,2022-05-04T23:49:19Z,Irving Ave & Jefferson St,5051.02,Melrose St & Broadway,4801.04,40.70538,-73.92535,40.697481,-73.935877,member
5D0581CF1E1E3673,classic_bike,2022-05-17T22:10:20Z,2022-05-17T22:23:38Z,Bleecker St & Crosby St,5679.08,West St & Chambers St,5329.03,40.72615604980408,-73.99510189890862,40.71754834,-74.01322069,member
967D4DB01DE70777,classic_bike,2022-05-18T17:48:38Z,2022-05-18T18:01:36Z,E 30 St & Park Ave S,6206.08,Broadway & W 41 St,6560.01,40.74444921,-73.98303529,40.75513557,-73.98658032,member
F395F715BD2D0BD6,classic_bike,2022-05-12T18:42:06Z,2022-05-12T18:52:54Z,W 13 St & 5 Ave,5947.04,E 2 St & Avenue B,5515.02,40.735445,-73.99431,40.72217444,-73.98368779,member
B24B7B7BA09878C5,classic_bike,2022-05-27T08:17:45Z,2022-05-27T08:57:12Z,Edgecombe Ave & W 141 St,7915.11,E 68 St & Madison Ave,6932.15,40.820681,-73.945144,40.7691572,-73.96703464,member
8C0E46A4472282DF,classic_bike,2022-05-30T13:09:03Z,2022-05-30T13:22:06Z,E 12 St & 3 Ave,5788.12,8 Ave & W 33 St,6450.12,40.73223272,-73.98889957,40.751551,-73.993934,member
43ECF07C1B77FF96,classic_bike,2022-05-25T23:13:49Z,2022-05-25T23:37:23Z,N 6 St & Bedford Ave,5379.1,Lexington Ave & Classon Ave,4452.03,40.71745169,-73.95850939,40.68676793,-73.95928168,member
6A749C48D00FE331,classic_bike,2022-05-22T16:17:39Z,2022-05-22T16:22:34Z,E 67 St & Park Ave,6932.14,E 53 St & Madison Ave,6659.03,40.76780080148132,-73.96592080593109,40.7597108,-73.97402311,member
3435CD1690986CBA,classic_bike,2022-05-19T22:09:15Z,2022-05-19T22:17:31Z,W 22 St & 8 Ave,6224.03,Broadway & W 29 St,6289.06,40.74475148,-73.99915362,40.7462009,-73.98855723,member
F06A404F318E101B,electric_bike,2022-05-21T19:36:42Z,2022-05-21T19:38:52Z,Richardson St & N Henry St,5433.03,Graham Ave & Conselyea St,5291.05,40.71907891179564,-73.94223690032959,40.715143,-73.944507,member
2D2F624836529B04,electric_bike,2022-05-26T15:44:54Z,2022-05-26T15:58:17Z,E 39 St & Lexington Ave,6389.09,E 5 St & Ave A,5626.06,40.749498546025194,-73.97729203113158,40.72479007746337,-73.98430064320564,member
9FF5E892C19B2244,electric_bike,2022-05-04T20:16:56Z,2022-05-04T20:30:28Z,E 63 St & 3 Ave,6830.02,W 41 St & 8 Ave,6602.03,40.763954,-73.9646,40.75640548,-73.9900262,casual
417B2BCC9271E03D,classic_bike,2022-05-27T01:03:53Z,2022-05-27T01:07:22Z,2 Ave & E 96 St,7338.02,2 Ave & E 96 St,7338.02,40.7839636,-73.9471673,40.7839636,-73.9471673,member
B76A44681874D18E,classic_bike,2022-05-18T14:27:18Z,2022-05-18T14:43:07Z,3 Ave & E 72 St,7028.04,Lexington Ave & E 29 St,6164.09,40.7699426,-73.96060712,40.74311555376486,-73.98215353488922,member
18F4D37720FD8452,electric_bike,2022-05-14T16:07:40Z,2022-05-14T16:12:02Z,Henry St & Grand St,5294.04,Canal St & Rutgers St,5303.08,40.714211,-73.981095,40.71427487,-73.98990025,member
CD99BE9E53D1A8EE,classic_bike,2022-05-22T10:58:51Z,2022-05-22T11:03:33Z,Barclay St & Church St,5216.04,Fulton St & William St,5137.11,40.71291224,-74.01020234,40.70960089363537,-74.00655090808868,member
920F757953777415,classic_bike,2022-05-09T07:26:51Z,2022-05-09T07:36:24Z,E 65 St & 2 Ave,6860.12,E 98 St & Park Ave,7443.17,40.764558792,-73.962376833,40.78813,-73.95206,member
C839768A0698D19B,classic_bike,2022-05-14T12:38:00Z,2022-05-14T13:08:58Z,Warren St & Court St,4413.08,39 St & 2 Ave,3501.01,40.686371,-73.99383324,40.65539977447831,-74.01062786579132,member
852D922E7BDDE854,classic_bike,2022-05-26T18:44:10Z,2022-05-26T18:51:33Z,E 19 St & 3 Ave,5938.01,E 4 St & Ave B,5515.08,40.73624527,-73.98473765,40.723346832180155,-73.98265913128853,member
31828480636F65B7,classic_bike,2022-05-29T18:48:57Z,2022-05-29T19:26:16Z,Riverside Dr & W 72 St,7288.04,South St & Whitehall St,4846.01,40.78057799010334,-73.98562431335449,40.70122128,-74.01234218,member
05306EC19F0AF5B4,electric_bike,2022-05-14T14:47:15Z,2022-05-14T15:29:24Z,Amsterdam Ave & W 79 St,7311.02,Broadway & W 41 St,6560.01,40.7829391,-73.9786517,40.75513557,-73.98658032,casual
F8E5B4EC3E644246,classic_bike,2022-05-14T12:09:20Z,2022-05-14T12:12:14Z,Greenpoint Ave & Manhattan Ave,5785.05,McGuinness Blvd & Eagle St,5977.01,40.73026,-73.95394,40.73555,-73.95284,member
AE144E1D2AB2F3FA,classic_bike,2022-05-04T11:44:40Z,2022-05-04T11:49:32Z,3 St & Hoyt St,4110.1,Bond St & Bergen St,4404.1,40.6777287,-73.99364123,40.6849668,-73.98620772,member
0884BC9A49867A60,classic_bike,2022-05-23T18:20:39Z,2022-05-23T18:36:18Z,21 St & Queens Plaza North,6471.02,21 St & Queens Plaza North,6471.02,40.75325964,-73.94335788,40.75325964,-73.94335788,member
89985190187B4BCB,classic_bike,2022-05-22T02:31:32Z,2022-05-22T02:48:40Z,Allen St & Rivington St,5414.06,Lawrence St & Willoughby St,4596.09,40.72019576,-73.98997825,40.69236178,-73.98631746,casual
8AF37488DED35452,classic_bike,2022-05-15T08:09:28Z,2022-05-15T08:22:43Z,1 Ave & E 39 St,6303.01,Great Jones St,5636.11,40.74714,-73.97113,40.72743423,-73.99379025,member
D83BE61209EB4036,classic_bike,2022-05-10T22:43:35Z,2022-05-10T22:53:19Z,Spring St & Hudson St,5653.12,Lafayette St & E 8 St,5788.13,40.72583996792375,-74.0076532959938,40.73020660529954,-73.99102628231049,member
AAFA789DD1C5A55A,electric_bike,2022-05-31T23:28:13Z,2022-05-31T23:44:44Z,44 Dr & Jackson Ave,6352.01,Steinway St & 28 Ave,6915.02,40.74718234,-73.9432635,40.7656251,-73.9136695,member
9F4D9DCDCE584AD9,electric_bike,2022-05-07T10:28:02Z,2022-05-07T10:30:33Z,E 40 St & 5 Ave,6474.11,W 37 St & 5 Ave,6398.06,40.752062307,-73.9816324043,40.75038009,-73.98338988,member
933F55BF0D205F52,classic_bike,2022-05-15T01:13:56Z,2022-05-15T01:16:59Z,Forsyth St & Canal St,5270.07,Orchard St & Grand St,5343.11,40.7158155,-73.99422366,40.717318403855785,-73.99067759513855,member
C707B775BEE8BB58,classic_bike,2022-05-03T08:43:08Z,2022-05-03T08:46:16Z,1 Ave & E 78 St,7020.09,E 84 St & 1 Ave,7180.02,40.77140426,-73.9535166,40.77565541,-73.95068615,member
4355BCE28A101893,classic_bike,2022-05-18T18:32:14Z,2022-05-18T18:36:54Z,E 13 St & Avenue A,5779.09,E 7 St & Ave B,5584.05,40.72966729392978,-73.98067966103554,40.7251285241158,-73.98131668567657,member
3447D36FC3B6C6CA,electric_bike,2022-05-16T13:01:22Z,2022-05-16T13:06:18Z,Vesey Pl & River Terrace,5297.02,Murray St & Greenwich St,5288.12,40.7153379,-74.01658354,40.71485150526251,-74.01122331619263,member
6CF40E5966A0D4A9,classic_bike,2022-05-24T07:40:28Z,2022-05-24T07:53:48Z,Hamilton Pl & W 140 St,7959.18,Morningside Ave & W 123 St,7741.01,40.822756,-73.951346,40.81,-73.9551508,member
11BDE65277AC046B,classic_bike,2022-05-21T12:58:12Z,2022-05-21T13:10:27Z,E 85 St & 3 Ave,7212.05,E 63 St & 3 Ave,6830.02,40.77801203,-73.95407149,40.763954,-73.9646,member
C199831ED9D624DD,electric_bike,2022-05-20T08:49:47Z,2022-05-20T09:06:24Z,W 84 St & Columbus Ave,7382.04,E 47 St & 1 Ave,6498.09,40.78499979,-73.97283406,40.75206862,-73.96784384,member
657E109D859B705F,electric_bike,2022-05-29T10:12:25Z,2022-05-29T10:35:42Z,W 74 St & Columbus Ave,7230.1,9 Ave & W 22 St,6266.06,40.7785669,-73.97754961,40.7454973,-74.00197139,member
F1C2F0749AC91D5F,classic_bike,2022-05-18T16:59:32Z,2022-05-18T17:11:48Z,Westchester Ave & E 156 St,7891.06,E 171 St & Webster Ave,8190.03,40.817796469,-73.905251026,40.838379,-73.905838,member
ACC076A90281FB65,classic_bike,2022-05-10T20:38:25Z,2022-05-10T20:52:16Z,Bedford Ave & Nassau Ave,5550.05,Center Blvd & 51 Ave,6179.07,40.72311651,-73.95212324,40.743366080270214,-73.95960688591003,member
C10405D79641370B,classic_bike,2022-05-01T10:50:22Z,2022-05-01T10:55:48Z,Stagg St & Union Ave,5117.05,S 3 St & Bedford Ave,5235.05,40.70877084,-73.95095259,40.71260486,-73.96264403,member
3167FC56D804E395,classic_bike,2022-05-03T18:47:32Z,2022-05-03T18:59:29Z,W 63 St & Broadway,7052.01,W 29 St & 9 Ave,6416.06,40.77163851,-73.98261428,40.7500727,-73.99839279,member
29EF4D79FEA43CB8,classic_bike,2022-05-18T18:58:29Z,2022-05-18T19:34:44Z,5 Ave & E 63 St,6904.06,24 Ave & 26 St,7152.1,40.766368,-73.971518,40.774591,-73.918544,member
618E4FD71488D756,classic_bike,2022-05-29T21:54:16Z,2022-05-29T22:04:51Z,Clinton St & Grand St,5303.06,E 13 St & Avenue A,5779.09,40.71559509,-73.9870295,40.72966729392978,-73.98067966103554,member
352A5C8675368FB8,electric_bike,2022-05-12T09:30:44Z,2022-05-12T09:34:03Z,E 76 St & Park Ave,7128.08,3 Ave & E 71 St,6960.1,40.773763,-73.96222088,40.76873687,-73.96119945,member
76FBA23649749F32,classic_bike,2022-05-22T14:35:35Z,2022-05-22T14:44:46Z,Broadway & W 37 St,6441.02,W 34 St &\tHudson Blvd E,6535.04,40.75172632,-73.98753523,40.75516719072139,-74.00059908628464,member
27DE798AF47E2C59,classic_bike,2022-05-22T15:31:30Z,2022-05-22T15:34:06Z,Broadway & Battery Pl,4962.01,Little West St & 1 Pl,5001.08,40.70463334,-74.01361706,40.70569254,-74.01677685,member
3745CB7C94E7704F,electric_bike,2022-05-10T12:24:55Z,2022-05-10T12:43:43Z,Beaver St & Fayette St,4840.06,Grand St & Elizabeth St,5382.06,40.70099,-73.93921,40.718822,-73.99596,casual
DF2282902364BB49,classic_bike,2022-05-24T17:56:02Z,2022-05-24T18:04:32Z,E 33 St & 1 Ave,6197.08,6 Ave & W 34 St,6364.1,40.74322681432173,-73.97449783980846,40.74964,-73.98805,member
8059D4E84C6FE048,classic_bike,2022-05-30T13:24:46Z,2022-05-30T13:59:19Z,Broadway & W 56 St,6847.02,India St Pier,5794.05,40.7652654,-73.98192338,40.731734785883454,-73.9612390102593,member
B7B52A8BB6FA9D6B,classic_bike,2022-05-12T17:13:06Z,2022-05-12T17:26:19Z,E 48 St & 3 Ave,6541.03,6 Ave & W 34 St,6364.1,40.7546011026,-73.971878855,40.74964,-73.98805,member
283966D9D00D7BDA,classic_bike,2022-05-25T15:00:23Z,2022-05-25T15:05:40Z,E 84 St & Park Ave,7243.04,E 81 St & York Ave,7084.12,40.77862688,-73.95772073,40.7728384,-73.94989233,member
9D62CE7D2D755001,classic_bike,2022-05-01T13:01:34Z,2022-05-01T13:10:40Z,Thompson St & Bleecker St,5721.07,E 2 St & Avenue A,5553.1,40.72840059450829,-73.99968780577183,40.72307749068673,-73.98583620786667,member
15554836BE4BF69F,classic_bike,2022-05-20T11:46:07Z,2022-05-20T11:51:12Z,Central Park West & W 76 St,7253.04,Columbus Ave & W 72 St,7175.05,40.77896784,-73.97374737,40.7770575,-73.97898475,member
DD2B68CEC9D6D143,electric_bike,2022-05-28T17:04:14Z,2022-05-28T17:26:07Z,West Broadway & Watts St,5569.07,Hudson St & W 13 St,6115.06,40.72323,-74.00314,40.74005708567285,-74.0052741765976,casual
2DC85A38599A84B7,classic_bike,2022-05-31T08:58:40Z,2022-05-31T09:14:18Z,Orchard St & Grand St,5343.11,Greenwich St & Perry St,5922.04,40.717318403855785,-73.99067759513855,40.73498,-74.00697,member
46C7AC785CE5D356,classic_bike,2022-05-15T13:03:11Z,2022-05-15T13:50:33Z,E 15 St & 3 Ave,5863.07,St James Pl & Oliver St,5238.05,40.734232,-73.986923,40.71307916,-73.99851193,member
0AAD8B95BFD701BD,classic_bike,2022-05-30T14:36:43Z,2022-05-30T14:40:28Z,W 18 St & 9 Ave,6190.03,W 22 St & 8 Ave,6224.03,40.7435337324616,-74.00367558002472,40.74475148,-73.99915362,member
2988CC15140E3B0B,electric_bike,2022-05-18T17:47:58Z,2022-05-18T17:58:36Z,Boerum St & Broadway,5004.02,Boerum St & Broadway,5004.02,40.70538077,-73.94976519,40.70538077,-73.94976519,casual
C4AF5E3994A2794F,classic_bike,2022-05-20T17:15:38Z,2022-05-20T23:31:30Z,Isham St & Broadway,8665.09,Isham St & Broadway,8665.09,40.86788,-73.919685,40.86788,-73.919685,member
87BAD119588D4975,classic_bike,2022-05-15T16:25:46Z,2022-05-15T16:30:14Z,E 2 St & Avenue A,5553.1,Allen St & Rivington St,5414.06,40.72307749068673,-73.98583620786667,40.72019576,-73.98997825,member
8EEC2E7ACAB2502D,classic_bike,2022-05-28T22:21:17Z,2022-05-28T22:27:47Z,11 Ave & W 59 St,7059.01,W 52 St & 11 Ave,6926.01,40.77149671054441,-73.99046033620834,40.76727216,-73.99392888,member
F3B4953C96F2DDBF,docked_bike,2022-05-17T18:07:45Z,2022-05-17T18:49:00Z,W 52 St & 6 Ave,6740.01,St Marks Pl & 2 Ave,5669.1,40.76133,-73.97982,40.728419,-73.98714,casual
BC1E38BD5C28B707,electric_bike,2022-05-06T13:59:30Z,2022-05-06T14:15:46Z,Metropolitan Ave & Bedford Ave,5308.04,Lafayette St & Jersey St,5561.06,40.71534825,-73.96024116,40.72456089,-73.99565293,member
C517551A81A0696A,classic_bike,2022-05-19T12:15:29Z,2022-05-19T12:23:48Z,Lafayette St & E 8 St,5788.13,Henry St & Grand St,5294.04,40.730520368,-73.990706801,40.714211,-73.981095,member
01F4AE6E749CBE6F,electric_bike,2022-05-16T20:29:38Z,2022-05-16T20:32:54Z,Park Ave & E 162 St,8016.07,3 Ave & Franklin Ave,8012.04,40.825716,-73.915585,40.82696,-73.907451,member
4C3503583B910F36,classic_bike,2022-05-27T15:30:20Z,2022-05-27T15:42:18Z,E 16 St & Irving Pl,5938.11,W 15 St & 6 Ave,5989.02,40.735367055605394,-73.98797392845154,40.738046142482766,-73.99642959237099,casual
BDB91702C07C6D25,classic_bike,2022-05-13T09:51:31Z,2022-05-13T10:01:43Z,Kingsland Ave & Nassau Ave,5613.04,Metropolitan Ave & Meeker Ave,5300.05,40.72577,-73.94173,40.71413311,-73.95234386,member
6C94639DA4859194,electric_bike,2022-05-04T17:15:42Z,2022-05-04T17:30:02Z,E 54 St & 1 Ave,6608.09,E 85 St & York Ave,7146.04,40.756265,-73.964179,40.77536905,-73.94803392,member
184E7611218C5025,classic_bike,2022-05-13T19:50:08Z,2022-05-13T20:01:24Z,E 45 St & 3 Ave,6464.08,5 Ave & E 29 St,6248.06,40.75255434,-73.97282625,40.7451677,-73.98683077,member
9104D6A26D2DDFEC,electric_bike,2022-05-24T17:43:02Z,2022-05-24T18:02:24Z,9 Ave & W 45 St,6717.06,W 45 St & 8 Ave,6676.02,40.76019252,-73.9912551,40.75929124,-73.98859651,member
3D28B266D58D8A21,classic_bike,2022-05-30T10:09:32Z,2022-05-30T10:13:31Z,Willoughby Ave & Tompkins Ave,4665.02,Myrtle Ave & Marcy Ave,4707.03,40.69425403,-73.94626915,40.69539817,-73.94954908,casual
09137D45B2DC91A4,classic_bike,2022-05-11T09:47:49Z,2022-05-11T10:06:06Z,Rivington St & Chrystie St,5453.01,Broadway\t& W 48 St,6708.04,40.721128345,-73.991793871,40.76017739537783,-73.98486793041229,member
CECFD0CF7358D05E,classic_bike,2022-05-25T17:45:03Z,2022-05-25T18:32:36Z,Amsterdam Ave & W 125 St,7800.03,W 39 St & 9 Ave,6644.04,40.813358,-73.956461,40.75645824,-73.99372222,casual
2CF1406F267BA630,classic_bike,2022-05-19T16:29:14Z,2022-05-19T17:25:27Z,1 Ave & E 68 St,6822.09,DeKalb Ave & Franklin Ave,4528.01,40.76500525,-73.95818491,40.69064807082943,-73.95746178925037,member
877971993C7CBD8B,classic_bike,2022-05-24T16:39:15Z,2022-05-24T17:03:30Z,Adelphi St & Myrtle Ave,4620.02,14 St & 5 Ave,3771.06,40.69308257,-73.97178913,40.666287,-73.98895053,casual
D61881E2A9B8BC46,electric_bike,2022-05-01T13:05:05Z,2022-05-01T13:05:41Z,Willis Ave & E 141 St,7759.08,Willis Ave & E 141 St,7759.08,40.81093,-73.921606,40.81093,-73.921606,member
9E5C797F1FA9DEC4,classic_bike,2022-05-15T10:19:10Z,2022-05-15T10:40:30Z,Frederick Douglass Blvd & W 117 St,7688.12,E 81 St & 3 Ave,7154.07,40.805159,-73.954692,40.77573034,-73.9567526,member
18C1770E4AAAC00F,electric_bike,2022-05-21T14:39:44Z,2022-05-21T15:28:07Z,10 Ave & W 28 St,6459.04,NA,NA,40.75066386,-74.00176802,40.75,-74,member
7745439302FEE917,classic_bike,2022-05-15T12:43:34Z,2022-05-15T12:50:20Z,Franklin Ave & Myrtle Ave,4715.01,Willoughby Ave & Tompkins Ave,4665.02,40.694546087246025,-73.95801365375519,40.69425403,-73.94626915,member
C5815B38A414A1DD,electric_bike,2022-05-06T16:09:01Z,2022-05-06T16:14:03Z,Franklin Ave & E 169 St,8118.02,Longfellow Ave & E 165 St,7983.04,40.83171,-73.90208,40.825322,-73.887729,member
3BC93D4E17D20F2F,classic_bike,2022-05-26T10:14:58Z,2022-05-26T10:20:09Z,10 Ave & W 28 St,6459.04,W 20 St & 7 Ave,6182.02,40.75066386,-74.00176802,40.74238787,-73.99726235,member
5877357E939D259C,electric_bike,2022-05-28T15:30:43Z,2022-05-28T15:34:11Z,W 82 St & Central Park West,7304.08,W 89 St & Columbus Ave,7432.09,40.78275,-73.97137,40.7882213,-73.97041561,member
A21E853E8FC0BC0B,classic_bike,2022-05-12T18:52:34Z,2022-05-12T19:31:43Z,Putnam Ave & Wyckoff Ave,4735.03,28 St & 41 Ave,6462.19,40.697981,-73.909081936,40.751047,-73.937970000000007,member
E0DA201F3E5F53D0,electric_bike,2022-05-07T01:55:17Z,2022-05-07T02:02:58Z,2 Ave & E 72 St,6925.09,E 58 St & 3 Ave,6762.02,40.7687620293096,-73.95840793848038,40.76095756,-73.96724467,casual
B0D1CE1DDE091107,classic_bike,2022-05-18T23:10:41Z,2022-05-18T23:47:36Z,Suffolk St & Stanton St,5445.02,W 17 St & 8 Ave,6148.02,40.72066442,-73.98517977,40.74177603,-74.00149746,member
3A517900AD94280C,classic_bike,2022-05-12T13:20:02Z,2022-05-12T13:44:15Z,W 15 St & 6 Ave,5989.02,Morton St & Washington St,5772.05,40.738046142482766,-73.99642959237099,40.73115,-74.00887,member
CB9944B3F1E9D297,electric_bike,2022-05-24T15:03:54Z,2022-05-24T15:12:40Z,W 20 St & 8 Ave,6224.05,MacDougal St & Prince St,5687.04,40.74345335,-74.00004031,40.72710258,-74.00297088,casual
C35B8CB434957CBC,classic_bike,2022-05-11T17:04:38Z,2022-05-11T17:08:48Z,36 Ave & 31 St,6572.08,Crescent St & 34 Ave,6759.15,40.75651272984955,-73.92957486212252,40.76108,-73.930562,member
334E8D30D316909E,electric_bike,2022-05-19T16:29:44Z,2022-05-19T16:48:09Z,Rivington St & Chrystie St,5453.01,W 31 St & 7 Ave,6331.01,40.72110063,-73.9919254,40.749156,-73.9916,member
BA81487E91A735B8,electric_bike,2022-05-08T16:01:38Z,2022-05-08T16:17:38Z,Broadway & Kosciuszko St,4608.01,Bond St & Fulton St,4479.06,40.69329,-73.92852,40.68962188790333,-73.98304268717766,member
13E78BB0F0684B9C,classic_bike,2022-05-08T21:06:42Z,2022-05-08T21:08:30Z,Lenox Ave & W 111 St,7602.05,Central Park North & Adam Clayton Powell Blvd,7617.07,40.7987859,-73.9523,40.799484,-73.955613,member
9E769D6474BE3C42,classic_bike,2022-05-30T10:18:42Z,2022-05-30T10:23:13Z,W 11 St & 6 Ave,5914.03,LaGuardia Pl & W 3 St,5721.14,40.73532427,-73.99800419,40.72917025,-73.99810231,member
677FE304EF88F225,classic_bike,2022-05-27T09:57:19Z,2022-05-27T10:01:33Z,W 113 St & Broadway,7713.01,Broadway & Moylan Pl,7823.03,40.805973,-73.964928,40.8143256,-73.9590255,member
DEEC3C02A4E6795E,classic_bike,2022-05-17T18:18:43Z,2022-05-17T18:30:31Z,1 Ave & E 30 St,6079.03,E 53 St & Lexington Ave,6617.09,40.74144387,-73.97536082,40.75828065,-73.97069431,member
75037F5DC51A77DF,electric_bike,2022-05-05T19:06:20Z,2022-05-05T19:09:31Z,McKibbin St & Bogart St,5059.02,Central Ave & Melrose St,4832.07,40.706237,-73.933871,40.70112,-73.93039,member
F7122954B6BC4FFE,classic_bike,2022-05-05T11:15:49Z,2022-05-05T11:24:22Z,Lexington Ave & E 29 St,6164.09,W 22 St & 8 Ave,6224.03,40.74311555376486,-73.98215353488922,40.74475148,-73.99915362,member
72943D8321026D67,classic_bike,2022-05-15T14:33:38Z,2022-05-15T14:43:07Z,Perry St & Bleecker St,5922.07,Lafayette St & E 8 St,5788.13,40.73535398,-74.00483091,40.73020660529954,-73.99102628231049,member
19B4EECBD52C35BF,classic_bike,2022-05-05T17:57:35Z,2022-05-05T18:15:59Z,Broadway & E 21 St,6098.1,W 42 St & 8 Ave,6602.05,40.739888408589955,-73.98958593606949,40.7575699,-73.99098507,member
DCFA04EC2432B790,classic_bike,2022-05-24T02:18:43Z,2022-05-24T02:30:47Z,Smith St & 9 St,4077.04,Smith St & 9 St,4077.04,40.6746957,-73.99785768,40.6746957,-73.99785768,casual
53A308598B6703CD,classic_bike,2022-05-18T13:51:30Z,2022-05-18T13:56:57Z,Old Broadway & W 133 St,7881.09,Broadway & W 122 St,7783.18,40.818201661,-73.955273867,40.8120562,-73.9612547,member
7FA7B4E159BC11ED,electric_bike,2022-05-04T08:35:00Z,2022-05-04T08:55:29Z,E 74 St & 1 Ave,6953.08,W 44 St & 11 Ave,6756.05,40.7689738,-73.95482273,40.762009,-73.996975,member
70FE9F258429EB9B,classic_bike,2022-05-26T13:32:49Z,2022-05-26T13:38:58Z,Cooper Square & Astor Pl,5712.03,St Marks Pl & 2 Ave,5669.1,40.72951496224949,-73.99075269699097,40.7284186,-73.98713956,member
48DA675261E1BA8C,classic_bike,2022-05-11T09:03:15Z,2022-05-11T09:25:02Z,E 6 St & Avenue D,5506.14,6 Ave & W 34 St,6364.1,40.72228087,-73.97668709,40.74964,-73.98805,member
96EF67987681B6B4,electric_bike,2022-05-17T10:51:45Z,2022-05-17T11:01:34Z,Allen St & Hester St,5342.1,S 4 St & Wythe Ave,5204.05,40.71605866,-73.99190759,40.71285887,-73.96590294,member
E401141C08D499BC,classic_bike,2022-05-27T21:55:05Z,2022-05-27T22:18:30Z,Willoughby Ave & Wyckoff Ave,5010.02,Metropolitan Ave & Bedford Ave,5308.04,40.705614,-73.92153,40.71534825,-73.96024116,casual
57C56A75A777E0D7,classic_bike,2022-05-10T09:42:26Z,2022-05-10T09:47:07Z,MacDougal St & Prince St,5687.04,6 Ave & Walker St,5430.1,40.72710258,-74.00297088,40.7197920901383,-74.0052238852195,member
2C7E8A87D003A01D,classic_bike,2022-05-24T11:11:17Z,2022-05-24T11:48:49Z,Hancock St & Bedford Ave,4255.05,Lewis Ave & Madison St,4425.02,40.68216564,-73.95399026,40.686312,-73.935775,member
EEFCB6B85815E789,electric_bike,2022-05-29T16:05:44Z,2022-05-29T16:12:34Z,Greene Ave & Throop Ave,4510.04,Hancock St & Bedford Ave,4255.05,40.6894932,-73.942061,40.68216564,-73.95399026,casual
059D5849F5E35AF0,classic_bike,2022-05-28T15:11:01Z,2022-05-28T15:13:51Z,E 6 St & Avenue B,5584.04,Ave A & E 14 St,5779.11,40.72453734,-73.98185424,40.73031071000895,-73.98047178983688,member
D088F0CFB4861745,classic_bike,2022-05-16T17:22:09Z,2022-05-16T17:26:13Z,Broadway & W 53 St,6779.05,Broadway & W 41 St,6560.01,40.76344058,-73.98268129,40.75513557,-73.98658032,member
C7F55879EB6EB0DE,classic_bike,2022-05-11T19:30:34Z,2022-05-11T19:36:27Z,Carmine St & 6 Ave,5763.03,Washington Pl & 6 Ave,5838.09,40.73038599,-74.00214988,40.73224119,-74.00026394,member
31802863B26AA69A,classic_bike,2022-05-25T15:28:58Z,2022-05-25T15:44:21Z,Fulton St & Adams St,4637.06,Water St & Main St,4936.14,40.692492962,-73.989486098,40.703212,-73.990409,member
2AB19AEBCBB9BFE8,electric_bike,2022-05-02T18:40:47Z,2022-05-02T18:56:20Z,E 81 St & 3 Ave,7154.07,W 110 St & Amsterdam Ave,7646.04,40.77573034,-73.9567526,40.802692,-73.96295,member
8FDF5B9E9EA2FCC8,electric_bike,2022-05-22T17:36:26Z,2022-05-22T18:02:58Z,LaGuardia Pl & W 3 St,5721.14,Berry St & N 8 St,5379.09,40.72917025,-73.99810231,40.7190095,-73.95852515,member
2BA028350EF07DF6,classic_bike,2022-05-11T09:04:23Z,2022-05-11T09:19:49Z,E 10 St & Avenue A,5659.05,W 24 St & 7 Ave,6257.03,40.72740794,-73.98142006,40.74487634,-73.99529885,member
49DAF7F58E14889C,classic_bike,2022-05-17T08:18:23Z,2022-05-17T08:23:56Z,E 7 St & Ave B,5584.05,Cooper Square & Astor Pl,5712.03,40.7251285241158,-73.98131668567657,40.72951496224949,-73.99075269699097,member
668F31BA1FE9EB68,electric_bike,2022-05-01T10:34:01Z,2022-05-01T10:40:25Z,W 82 St & Central Park West,7304.08,E 81 St & 3 Ave,7154.07,40.78275,-73.97137,40.77573034,-73.9567526,member
D8DED49B11D029B5,classic_bike,2022-05-09T18:23:38Z,2022-05-09T18:40:50Z,W 52 St & 6 Ave,6740.01,W 64 St & Thelonious Monk Circle,7123.04,40.76132983124814,-73.97982001304626,40.77515953434235,-73.98918695747852,casual
4D0081EA782C5068,classic_bike,2022-05-12T07:57:11Z,2022-05-12T08:16:48Z,Carroll St & 6 Ave,4019.06,Dock 72 Way & Market St,4804.02,40.6740886,-73.9787282,40.69985,-73.97141,member
0E87DFAC0CDDC069,electric_bike,2022-05-10T18:45:19Z,2022-05-10T18:49:49Z,E 78 St & 2 Ave,7057.07,E 84 St & 1 Ave,7180.02,40.7727966,-73.95577801,40.77565541,-73.95068615,member
4B2E3F0CAA079DCB,electric_bike,2022-05-27T15:53:29Z,2022-05-27T15:56:45Z,Franklin Ave & E 169 St,8118.02,Fulton Ave & E 168 St,8084.03,40.83171,-73.90208,40.830471,-73.904556,member
3E313C14F0E72EA6,classic_bike,2022-05-19T10:58:35Z,2022-05-19T11:03:22Z,Central Park West & W 85 St,7354.01,Central Park W & W 97 St,7538.18,40.78476,-73.969862,40.79249519495111,-73.96417066463071,member
FAB8642103335FC4,electric_bike,2022-05-03T15:24:38Z,2022-05-03T15:36:45Z,W 64 St & Thelonious Monk Circle,7123.04,E 81 St & Park Ave,7188.1,40.77515953434235,-73.98918695747852,40.77677702,-73.9590097,casual
59CB6F11B39B4824,classic_bike,2022-05-18T13:35:58Z,2022-05-18T13:55:20Z,E 15 St & 3 Ave,5863.07,Howard St & Lafayette St,5422.04,40.734109044,-73.986933947,40.71910537,-73.99973337,member
508DCFC778088BAA,classic_bike,2022-05-22T09:42:10Z,2022-05-22T09:44:16Z,W 106 St & Amsterdam Ave,7634.01,W 107 St & Columbus Ave,7619.05,40.8008363,-73.9664492472,40.7997568,-73.9621128676,member
DAFC40BE4716807B,classic_bike,2022-05-11T03:22:20Z,2022-05-11T03:40:13Z,Lefferts Pl & Franklin Ave,4222.02,Schermerhorn St & Court St,4565.04,40.680342423,-73.9557689392,40.69102925677968,-73.99183362722397,member
3BAF5DA4A067AD0C,classic_bike,2022-05-15T03:33:31Z,2022-05-15T03:37:09Z,E 33 St & 5 Ave,6322.01,W 30 St & 8 Ave,6373.07,40.74765947,-73.98490707,40.74965268472847,-73.9952078461647,member
FA32A56A1E155DCE,electric_bike,2022-05-06T19:40:11Z,2022-05-06T19:46:14Z,Broadway & E 19 St,6098.12,W 22 St & 10 Ave,6306.06,40.73866091428551,-73.98987293243407,40.74691959,-74.00451887,casual
CA4D316AC403981E,classic_bike,2022-05-05T14:13:26Z,2022-05-05T14:14:53Z,31 St & Hoyt Ave N,7018.01,24 Ave & 29 St,7119.04,40.7711528,-73.9170074,40.7729,-73.916142,member
009C5E371DDBC7F5,electric_bike,2022-05-04T16:54:15Z,2022-05-04T17:09:51Z,Spring St & Hudson St,5653.12,S 5 Pl & S 5 St,5125.03,40.72583996792375,-74.0076532959938,40.710451,-73.960876,casual
3F4200EA1E961DF3,classic_bike,2022-05-17T20:42:16Z,2022-05-17T21:03:48Z,E 53 St & Lexington Ave,6617.09,6 Ave & W 33 St,6364.07,40.75828065,-73.97069431,40.74901271,-73.98848395,member
D3E33FBDB8596BC0,classic_bike,2022-05-12T18:13:18Z,2022-05-12T18:16:48Z,N 15 St & Wythe Ave,5520.09,Milton St & Franklin St,5752.07,40.724055,-73.955736,40.72906,-73.95779,member
7FD8E285DADE853C,electric_bike,2022-05-10T13:57:44Z,2022-05-10T14:07:19Z,Grand St & Greene St,5500.02,E 14 St & Avenue B,5736.09,40.72170005235607,-74.00238141417502,40.72938685,-73.97772429,member
7A1D84C6BCBDD23B,classic_bike,2022-05-11T18:28:26Z,2022-05-11T18:43:55Z,Bergen St & 4 Ave,4322.06,N 11 St & Kent Ave,5489.04,40.682811618,-73.980006218,40.72248188638219,-73.95921930670738,member
DC988772211AEC76,classic_bike,2022-05-31T18:24:04Z,2022-05-31T18:33:22Z,West Broadway & Watts St,5569.07,Harrison St & Hudson St,5400.05,40.72323,-74.00314,40.71870987,-74.0090009,member
089E2A6B0B7EAB2E,classic_bike,2022-05-24T19:06:36Z,2022-05-24T19:15:56Z,Sullivan St & Washington Sq,5721.01,E 2 St & Avenue B,5515.02,40.73047747,-73.99906065,40.72217444,-73.98368779,member
46C9A61FD72B0F22,electric_bike,2022-05-16T16:39:07Z,2022-05-16T16:39:30Z,7 Ave & Park Pl,4125.07,7 Ave & Park Pl,4125.07,40.6776147,-73.97324283,40.6776147,-73.97324283,member
306C432243269E2D,classic_bike,2022-05-04T08:05:26Z,2022-05-04T08:09:06Z,W 13 St & 5 Ave,5947.04,W 21 St & 6 Ave,6140.05,40.735445,-73.99431,40.74173969,-73.99415556,member
8045BDEF5B048BCD,classic_bike,2022-05-22T15:46:39Z,2022-05-22T16:03:27Z,Kent Ave & N 7 St,5489.03,Morgan Ave & Lombardy St,5503.01,40.72036775298455,-73.96165072917938,40.72226,-73.93889,casual
6FC2774083239CAF,electric_bike,2022-05-03T21:10:14Z,2022-05-03T21:18:03Z,Bank St & Hudson St,5922.08,8 Ave & W 38 St,6526.05,40.73652889,-74.00618026,40.75461,-73.99177,member
C3D5173FDE44D82D,classic_bike,2022-05-25T22:52:46Z,2022-05-25T23:04:27Z,Grand St & Greene St,5500.02,Clinton St & Grand St,5303.06,40.72170005235607,-74.00238141417502,40.71559509,-73.9870295,member
721688AE5D4C8123,docked_bike,2022-05-14T11:54:48Z,2022-05-14T11:58:37Z,King St & Varick St,5687.11,Greene St & Prince St,5602.06,40.727897,-74.005363,40.725117,-73.999305,casual
AFB4056D75DB8CD3,classic_bike,2022-05-17T19:09:15Z,2022-05-17T19:26:40Z,E 59 St & Madison Ave,6801.01,1 Ave & E 94 St,7286.05,40.76350532,-73.97109243,40.7817212,-73.94594,member
7CD0EFDCCE8A8EA2,classic_bike,2022-05-23T20:23:54Z,2022-05-23T20:29:37Z,Ave A & E 11 St,5703.13,E 1 St & 1 Ave,5593.01,40.72854745023944,-73.98175925016403,40.72335597960796,-73.98864984512329,member
57E2D666480B7CD8,electric_bike,2022-05-13T19:47:16Z,2022-05-13T20:01:59Z,Grand St & Elizabeth St,5382.06,Union Ave & N 12 St,5411.07,40.718822,-73.99596,40.71924,-73.95242,member
5A7E59B2AA914C1B,classic_bike,2022-05-21T23:07:55Z,2022-05-21T23:21:49Z,6 Ave & Canal St,5500.07,Pike St & E Broadway,5270.05,40.72243797,-74.00566443,40.71406667,-73.99293911,member
E0FA5739294F61B8,electric_bike,2022-05-11T15:47:51Z,2022-05-11T16:04:42Z,E 53 St & Lexington Ave,6617.09,12 Ave & W 40 St,6765.01,40.75828065,-73.97069431,40.76087502,-74.00277668,member
85B2FE4360374B18,classic_bike,2022-05-22T16:46:05Z,2022-05-22T16:54:40Z,24 St & 41 Ave,6505.09,Jackson Ave & 46 Rd,6203.02,40.752474,-73.939991,40.74524768,-73.94733276,casual
B37F3597D3CC7649,classic_bike,2022-05-26T16:25:47Z,2022-05-26T16:35:29Z,N 12 St & Bedford Ave,5450.04,Franklin St & Dupont St,5944.01,40.72079821,-73.95484712,40.73564,-73.95866,casual
A457EC03D9093F8E,electric_bike,2022-05-10T16:24:30Z,2022-05-10T16:42:38Z,W 82 St & Central Park West,7304.08,5 Ave & E 72 St,7100.07,40.78275,-73.97137,40.77282817,-73.96685276,casual
979D79E79C75C2F2,classic_bike,2022-05-12T09:59:50Z,2022-05-12T10:01:44Z,W 50 St & 10 Ave,6890.06,W 53 St & 10 Ave,6890.01,40.764734200065185,-73.99194359779358,40.76669671,-73.99061728,member
68F7647ACA767BD5,classic_bike,2022-05-23T18:30:22Z,2022-05-23T18:37:49Z,Grand St & Samuel Dickstein Plaza,5335.07,Grand St & Elizabeth St,5382.06,40.71511871996496,-73.98417055606842,40.718822,-73.99596,member
022AA4C5BB6E3DE3,classic_bike,2022-05-18T13:40:03Z,2022-05-18T13:43:58Z,10 St & 5 Ave,3842.08,6 Ave & 12 St,3803.05,40.6686273,-73.98700053,40.6663181,-73.9854617,member
BFD1FFAEDA46C7BC,electric_bike,2022-05-08T19:39:42Z,2022-05-08T19:48:02Z,1 Ave & E 16 St,5779.08,Forsyth St & Canal St,5270.07,40.73221853,-73.98165557,40.7158155,-73.99422366,member
980812D3B5542B01,classic_bike,2022-05-24T19:55:45Z,2022-05-24T19:58:13Z,E 16 St & Irving Pl,5938.11,E 20 St & Park Ave,6055.08,40.735367055605394,-73.98797392845154,40.73827428,-73.98751968,member
EAE68A6C465371F7,classic_bike,2022-05-17T14:05:31Z,2022-05-17T14:08:48Z,W 56 St & 10 Ave,6955.01,W 56 St & 8 Ave,6884.03,40.768254,-73.988639,40.765959181657976,-73.98313522338867,member
7C1FB5C2985D844C,classic_bike,2022-05-12T16:35:04Z,2022-05-12T16:37:23Z,W 27 St & 7 Ave,6247.06,W 26 St & 8 Ave,6297.02,40.746647,-73.993915,40.74734825,-73.99723551,member
447C00208312047D,classic_bike,2022-05-30T20:07:13Z,2022-05-30T20:32:27Z,Broadway & Berry St,5164.04,Sullivan Pl & Franklin Ave,3704.08,40.71044554,-73.96525063,40.66407983678161,-73.96025128666679,member
C4955789E449AFB9,classic_bike,2022-05-25T21:58:39Z,2022-05-25T22:06:47Z,W 21 St & 6 Ave,6140.05,Sullivan St & Washington Sq,5721.01,40.74173969,-73.99415556,40.73047747,-73.99906065,casual
31A8D1B8153CE48E,classic_bike,2022-05-18T10:48:44Z,2022-05-18T10:57:28Z,Emerson Pl & Myrtle Ave,4683.02,DeKalb Ave & Hudson Ave,4513.06,40.69363137,-73.96223558,40.689888,-73.981013,member
13944D4A23BD69C7,classic_bike,2022-05-13T10:46:21Z,2022-05-13T10:52:21Z,DeKalb Ave & Hudson Ave,4513.06,Washington Park,4546.05,40.689888,-73.981013,40.6917823,-73.9737299,member
2491A888249BCCEE,classic_bike,2022-05-21T16:35:21Z,2022-05-21T16:55:09Z,1 Ave & E 16 St,5779.08,W 20 St & 10 Ave,6306.01,40.73221853,-73.98165557,40.745686,-74.005141,casual
C35848FF301DEB6B,classic_bike,2022-05-02T10:15:20Z,2022-05-02T10:39:59Z,William St & Pine St,5065.12,Rutgers St & Henry St,5230.02,40.70717936,-74.00887308,40.71332151208186,-73.99009689688683,member
077C9B0126343AD7,electric_bike,2022-05-31T23:28:32Z,2022-05-31T23:37:52Z,W 82 St & Central Park West,7304.08,E 82 St & East End Ave,7049.04,40.78275,-73.97137,40.7724607,-73.9468208,member
AE9EC955633E93B6,electric_bike,2022-05-23T09:44:49Z,2022-05-23T09:55:07Z,2 Ave & E 72 St,6925.09,1 Ave & E 44 St,6379.03,40.7687620293096,-73.95840793848038,40.75001986,-73.96905301,member
487635AC3347DB52,classic_bike,2022-05-29T11:36:46Z,2022-05-29T11:43:42Z,Adam Clayton Powell Blvd & W 138 St,7855.03,Lenox Ave & W 126 St,7720.03,40.81695971032464,-73.9422959089279,40.808442,-73.9452087,member
7638253131B9CE78,classic_bike,2022-05-13T07:14:19Z,2022-05-13T07:22:39Z,Ave D & E 8 St,5506.1,Broadway & E 14 St,5905.12,40.72368361,-73.97574813,40.73454567,-73.99074142,member
D4DCB32DEDBDAC2C,classic_bike,2022-05-26T08:24:20Z,2022-05-26T08:49:19Z,Rivington St & Ridge St,5406.02,Broadway & W 37 St,6441.02,40.71850211,-73.98329859,40.75172632,-73.98753523,member
8BACAE5BDD05511C,classic_bike,2022-05-30T19:06:26Z,2022-05-30T19:07:01Z,Dean St & Franklin Ave,4107.13,Dean St & Franklin Ave,4107.13,40.67759206937376,-73.955637216568,40.67759206937376,-73.955637216568,member
C1BE6377A5183741,docked_bike,2022-05-08T13:58:51Z,2022-05-08T14:21:06Z,Wythe Ave & Metropolitan Ave,5348.02,Bridge St & York St,4853.06,40.716887,-73.963198,40.701334,-73.984712,casual
FE2F780F05F58878,electric_bike,2022-05-15T11:32:56Z,2022-05-15T11:39:28Z,Huron St & Franklin St,5869.04,Nassau Ave & Russell St,5581.01,40.73266,-73.95826,40.72557,-73.94434,casual
F0B3ED753F948DBB,classic_bike,2022-05-08T20:51:27Z,2022-05-08T20:56:12Z,Henry St & Grand St,5294.04,Henry St & Grand St,5294.04,40.71591711,-73.985983133,40.714211,-73.981095,member
8D0094BBA9868F6C,classic_bike,2022-05-13T22:16:33Z,2022-05-13T22:22:26Z,Broadway & W 58 St,6948.1,Columbus Ave & W 72 St,7175.05,40.76695317,-73.98169333,40.7770575,-73.97898475,member
77EE2AC8B0674782,classic_bike,2022-05-18T06:57:18Z,2022-05-18T07:19:45Z,Grant Ave & E 169 St,8141.01,Home St & Westchester Ave,8020.01,40.835847378,-73.913707495,40.827629,-73.886659,member
EA4067E06499767B,classic_bike,2022-05-31T07:26:23Z,2022-05-31T07:30:21Z,University Pl & E 14 St,5905.14,Broadway & E 21 St,6098.1,40.734814,-73.992085,40.739888408589955,-73.98958593606949,member
3E5B821D361C1E56,classic_bike,2022-05-26T08:31:42Z,2022-05-26T09:07:18Z,Madison St & Montgomery St,5262.09,Eastern Pkwy & Washington Ave,3928.08,40.713126,-73.984844,40.6716493,-73.9631145,member
F47B6C28F7EEBFBA,classic_bike,2022-05-13T19:46:21Z,2022-05-13T19:49:21Z,Central Park S & 6 Ave,6876.04,E 59 St & Madison Ave,6801.01,40.76590936,-73.97634151,40.76350532,-73.97109243,member
A9726138E85A6A83,classic_bike,2022-05-31T18:45:24Z,2022-05-31T18:51:09Z,E 74 St & 1 Ave,6953.08,E 89 St & York Ave,7204.08,40.7689738,-73.95482273,40.7779453,-73.946041,casual
DB175E33E5353735,classic_bike,2022-05-08T16:16:11Z,2022-05-08T16:40:30Z,Morningside Ave & W 123 St,7741.01,Morningside Ave & W 123 St,7741.01,40.81,-73.9551508,40.81,-73.9551508,member
F478D6D4738830C7,classic_bike,2022-05-14T08:37:08Z,2022-05-14T08:47:15Z,6 Ave & Walker St,5430.1,Greenwich St & Perry St,5922.04,40.7197920901383,-74.0052238852195,40.73498,-74.00697,member
3F2873BDB8688BFD,electric_bike,2022-05-21T11:43:26Z,2022-05-21T12:02:44Z,Jerome Ave & W 195 St,8653.09,3 Ave & Franklin Ave,8012.04,40.86874,-73.89657,40.82696,-73.907451,member
2B35A19192E06349,classic_bike,2022-05-14T14:27:46Z,2022-05-14T14:57:39Z,9 Ave & W 45 St,6717.06,W 52 St & 6 Ave,6740.01,40.76019252,-73.9912551,40.76132983124814,-73.97982001304626,casual
831E0E9FB899D168,classic_bike,2022-05-15T19:43:24Z,2022-05-15T19:48:02Z,Riverside Blvd & W 67 St,7183.03,Amsterdam Ave & W 73 St,7260.09,40.777507027547976,-73.98888587951659,40.77966809007312,-73.98093044757842,member
10A73EBE7E242AE8,classic_bike,2022-05-10T21:56:27Z,2022-05-10T23:08:43Z,Henry St & Middagh St,4861.05,Broadway & Furman Ave,4244.06,40.7003,-73.991581,40.68139,-73.90756,casual
7B4E437C2325FB85,classic_bike,2022-05-25T11:21:37Z,2022-05-25T11:36:36Z,Christopher St & Greenwich St,5847.01,E 10 St & 2 Ave,5746.02,40.73291553,-74.00711384,40.72970805644994,-73.9865979552269,casual
6F293C54BF6F7FA1,classic_bike,2022-05-12T09:14:50Z,2022-05-12T09:23:41Z,E 33 St & 1 Ave,6197.08,Broadway & W 36 St,6441.01,40.74322681432173,-73.97449783980846,40.75097711,-73.98765428,casual
AC581D5F2E16BAE4,electric_bike,2022-05-03T12:58:58Z,2022-05-03T13:25:31Z,Forest Ave & Summerfield St,4798.02,Kosciuszko St & Nostrand Ave,4519.04,40.69922,-73.89795,40.69072549,-73.95133465,casual
DE56FF415071C622,classic_bike,2022-05-16T08:50:33Z,2022-05-16T12:03:39Z,Central Park S & 6 Ave,6876.04,W 36 St & 7 Ave,6483.06,40.76590936,-73.97634151,40.752149,-73.989539,casual
9E1AC06BC53BE7AB,classic_bike,2022-05-28T23:17:54Z,2022-05-28T23:24:55Z,Ave D & E 8 St,5506.1,E 2 St & Avenue C,5476.03,40.72368361,-73.97574813,40.7208736,-73.98085795,casual
7225A3BF08CE6147,classic_bike,2022-05-12T20:27:47Z,2022-05-12T20:44:02Z,W 43 St & 10 Ave,6756.01,E 59 St & Madison Ave,6801.01,40.76009437,-73.99461843,40.76350532,-73.97109243,member
2F836F19268683A5,electric_bike,2022-05-30T17:49:13Z,2022-05-30T18:04:48Z,Columbia St & Rivington St,5365.02,S 4 St & Rodney St,5156.05,40.71739973,-73.98016555,40.70934,-73.95608,member
EDDB7EA8F59D1212,classic_bike,2022-05-16T17:24:25Z,2022-05-16T17:33:23Z,E 47 St & Park Ave,6584.12,W 41 St & 8 Ave,6602.03,40.75510267,-73.97498696,40.75640548,-73.9900262,member
7EAE104DF0845960,electric_bike,2022-05-13T07:15:55Z,2022-05-13T07:20:43Z,W 92 St & Broadway,7502.01,Amsterdam Ave & W 79 St,7311.02,40.7921,-73.9739,40.7829391,-73.9786517,member
CE6C6F9D5B684C07,classic_bike,2022-05-31T18:14:16Z,2022-05-31T18:25:08Z,E 54 St & 1 Ave,6608.09,Broadway\t& W 48 St,6708.04,40.756265,-73.964179,40.76017739537783,-73.98486793041229,casual
0553532A736695E8,classic_bike,2022-05-18T09:57:23Z,2022-05-18T10:26:15Z,E 20 St & FDR Dr,5886.13,W 22 St & 10 Ave,6306.06,40.733208626522426,-73.9756813647,40.74691959,-74.00451887,member
4E2E560DDC268930,electric_bike,2022-05-15T20:17:31Z,2022-05-15T20:21:03Z,E 40 St & Park Ave,6432.11,W 37 St & 5 Ave,6398.06,40.750756,-73.978326,40.75038009,-73.98338988,member
C46133EA8FE56E26,classic_bike,2022-05-22T18:40:39Z,2022-05-22T18:40:42Z,N 11 St & Kent Ave,5489.04,N 11 St & Kent Ave,5489.04,40.72248188638219,-73.95921930670738,40.72248188638219,-73.95921930670738,member
3C800E7191E29293,classic_bike,2022-05-23T09:37:43Z,2022-05-23T09:43:46Z,Bleecker St & Crosby St,5679.08,E 16 St & Irving Pl,5938.11,40.72615604980408,-73.99510189890862,40.735367055605394,-73.98797392845154,member
F192AB2C4EDC95F1,classic_bike,2022-05-11T11:10:24Z,2022-05-11T11:25:14Z,Stanton St & Norfolk St,5445.07,E 9 St & 5 Ave,5872.1,40.720747,-73.986274,40.73275887045087,-73.99581670761108,casual
7CD2CB1B6E0B3073,classic_bike,2022-05-24T08:01:19Z,2022-05-24T08:04:51Z,10 Ave & W 28 St,6459.04,W 22 St & 8 Ave,6224.03,40.75066386,-74.00176802,40.74475148,-73.99915362,member
A0C52477168EA20B,electric_bike,2022-05-21T18:48:20Z,2022-05-21T18:51:05Z,E 91 St & Park Ave,7344.05,5 Ave & E 87 St,7323.09,40.7835016,-73.955327,40.78232260730881,-73.95987510681152,casual
BE0DDBE93A935EC2,docked_bike,2022-05-30T10:31:20Z,2022-05-30T11:06:33Z,5 Ave & E 103 St,7511.19,W 82 St & Central Park West,7304.08,40.792255,-73.952499,40.78275,-73.97137,casual
38A0CFD529E0814C,classic_bike,2022-05-15T11:44:47Z,2022-05-15T11:52:39Z,Atlantic Ave & Fort Greene Pl,4354.07,Union St & Nevins St,4143.03,40.68382604,-73.97632328,40.67909799721684,-73.98765474557877,casual
DEDA589F866F73BC,classic_bike,2022-05-09T18:57:25Z,2022-05-09T19:05:50Z,Broadway & W 61 St,7014.12,Broadway & W 38 St,6560.15,40.77003010255044,-73.9819684624672,40.7529728216068,-73.98734897375107,member
0D2C8082F8FC97DD,classic_bike,2022-05-16T01:04:36Z,2022-05-16T01:30:16Z,E 14 St & 1 Ave,5779.1,W 54 St & 11 Ave,6955.05,40.73139303364151,-73.98286700248718,40.768333,-73.992573,member
1526693E3C183997,classic_bike,2022-05-21T06:54:42Z,2022-05-21T06:55:48Z,W 18 St & 6 Ave,6064.08,W 15 St & 6 Ave,5989.02,40.73971301,-73.99456405,40.738046142482766,-73.99642959237099,member
C53380A2BA932EE2,classic_bike,2022-05-16T21:03:56Z,2022-05-16T21:07:40Z,West End Ave & W 78 St,7340.07,W 67 St & Broadway,7116.04,40.783800006,-73.981502533,40.77492513,-73.98266566,member
6698DC0A12E0CC80,classic_bike,2022-05-26T10:25:49Z,2022-05-26T10:29:19Z,6 Ave & W 34 St,6364.1,8 Ave & W 38 St,6526.05,40.74964,-73.98805,40.75461,-73.99177,member
E13243B248209674,classic_bike,2022-05-15T18:56:37Z,2022-05-15T19:07:01Z,Underhill Ave & Pacific St,4231.04,Nevins St & Schermerhorn St,4437.09,40.6804836,-73.9646795,40.68737247650719,-73.98176059126854,casual
DBE999FD15DD2D44,classic_bike,2022-05-06T15:10:32Z,2022-05-06T15:23:21Z,Morton St & Washington St,5772.05,W 22 St & 10 Ave,6306.06,40.73115,-74.00887,40.74691959,-74.00451887,member
53D3C484A64A655C,classic_bike,2022-05-12T13:18:23Z,2022-05-12T13:30:54Z,W 44 St & 5 Ave,6551.02,6 Ave & W 34 St,6364.1,40.75500254,-73.98014437,40.74964,-73.98805,member
665E5400AFE9B9F0,classic_bike,2022-05-02T09:54:27Z,2022-05-02T10:24:33Z,Riverside Dr & W 72 St,7288.04,W 51 St & Rockefeller Plaza,6700.14,40.78057799010334,-73.98562431335449,40.75973805251143,-73.97811613976955,casual
4FE70B9E96F9EDF4,electric_bike,2022-05-27T10:27:37Z,2022-05-27T10:38:17Z,W 36 St & 7 Ave,6483.06,E 56 St & Madison Ave,6732.01,40.752149,-73.989539,40.761573,-73.972628,member
C28F1EFF3694DAD1,classic_bike,2022-05-02T18:02:28Z,2022-05-02T18:08:04Z,E 85 St & 3 Ave,7212.05,E 97 St & 3 Ave,7365.08,40.77801203,-73.95407149,40.7859201,-73.94860294,member
D07E2F8561A07159,classic_bike,2022-05-28T22:10:45Z,2022-05-28T22:16:28Z,E 11 St & 3 Ave,5788.16,Mercer St & Bleecker St,5679.05,40.73127,-73.98849,40.72706363348306,-73.99662137031554,member
3CD15E31D9FF2779,classic_bike,2022-05-10T12:24:13Z,2022-05-10T12:31:00Z,E 33 St & 5 Ave,6322.01,E 48 St & 5 Ave,6626.01,40.74765947,-73.98490707,40.75724567911726,-73.97805914282799,member
AB745309B26186F5,classic_bike,2022-05-31T22:45:19Z,2022-05-31T22:56:51Z,Broadway & W 56 St,6847.02,Frederick Douglass Blvd & W 117 St,7688.12,40.765360951,-73.981840968,40.805159,-73.954692,member
AEA13FCDE6ECD471,classic_bike,2022-05-05T14:06:51Z,2022-05-05T14:20:13Z,Madison Ave & E 120 St,7667.04,Central Park North & Adam Clayton Powell Blvd,7617.07,40.80295,-73.942954,40.799484,-73.955613,casual
BB4ADD2569902150,electric_bike,2022-05-02T07:38:21Z,2022-05-02T07:43:41Z,Broadway & E 21 St,6098.1,W 22 St & 10 Ave,6306.06,40.739888408589955,-73.98958593606949,40.74691959,-74.00451887,member
269FEC48DCC35894,classic_bike,2022-05-20T09:32:43Z,2022-05-20T09:35:17Z,11 Ave & W 41 St,6726.01,W 34 St & 11 Ave,6578.01,40.76030096,-73.99884222,40.75594159,-74.0021163,member
7508E9B402A70EA1,electric_bike,2022-05-15T16:22:57Z,2022-05-15T16:39:49Z,Warren St & W Broadway,5288.09,Carmine St & 6 Ave,5763.03,40.71473993,-74.00910627,40.73038599,-74.00214988,casual
78C6CE7CAB67B1FB,classic_bike,2022-05-29T15:23:18Z,2022-05-29T16:19:44Z,7 Ave & Central Park South,6912.01,7 Ave & Central Park South,6912.01,40.7667405590595,-73.9790689945221,40.7667405590595,-73.9790689945221,casual
05C5AED8BF706FE3,electric_bike,2022-05-23T08:57:05Z,2022-05-23T09:04:06Z,Court St & Nelson St,4077.07,Richards St & Delavan St,4202.04,40.6763947,-73.99869893,40.6794327,-74.00785041,member
5260F60329679264,electric_bike,2022-05-06T16:47:10Z,2022-05-06T17:06:28Z,E 47 St & Park Ave,6584.12,W 70 St & Amsterdam Ave,7207.08,40.75510267,-73.97498696,40.77748046,-73.98288594,member
8FC8458C6951286F,classic_bike,2022-05-23T15:02:23Z,2022-05-23T15:07:44Z,E 7 St & Ave B,5584.05,1 Ave & E 16 St,5779.08,40.7251285241158,-73.98131668567657,40.73221853,-73.98165557,member
68CE97BA1B0F89BD,classic_bike,2022-05-12T07:21:02Z,2022-05-12T07:38:29Z,E 2 St & Avenue C,5476.03,W 27 St & 7 Ave,6247.06,40.7208736,-73.98085795,40.746647,-73.993915,member
61921AA7B1726DF2,classic_bike,2022-05-26T00:22:58Z,2022-05-26T00:28:49Z,Leonard St & Church St,5359.11,Spring St & Hudson St,5653.12,40.717571,-74.005549,40.72583996792375,-74.0076532959938,member
51C7736C99A8876D,classic_bike,2022-05-11T08:20:30Z,2022-05-11T08:31:31Z,1 Ave & E 18 St,5854.09,Allen St & Stanton St,5484.09,40.733812191966315,-73.98054420948029,40.722055,-73.989111,member
EB9D0332F283551C,classic_bike,2022-05-21T07:22:05Z,2022-05-21T07:47:15Z,W 116 St & Broadway,7713.11,East End Ave & E 86 St,7113.08,40.808345437,-73.964135051,40.77518615,-73.94446054,casual
29E9554577411E91,electric_bike,2022-05-20T15:32:25Z,2022-05-20T15:59:39Z,W 82 St & Central Park West,7304.08,E 25 St & 2 Ave,6046.02,40.78275,-73.97137,40.73912601,-73.97973776,member
C1FBAAD576719A9A,classic_bike,2022-05-22T00:25:27Z,2022-05-22T00:49:27Z,Avenue D & E 3 St,5436.09,W 20 St & 10 Ave,6306.01,40.72082834,-73.97793172,40.745686,-74.005141,member
73A2A057F37001A3,electric_bike,2022-05-03T09:16:53Z,2022-05-03T09:31:09Z,Lafayette St & E 8 St,5788.13,River Ter & Warren St,5368.03,40.73020660529954,-73.99102628231049,40.71759894980997,-74.01587963104248,member
