ride_id,rideable_type,started_at,ended_at,start_station_name,start_station_id,end_station_name,end_station_id,start_lat,start_lng,end_lat,end_lng,member_casual
940CE2E786451F93,classic_bike,2022-04-06T09:05:03Z,2022-04-06T09:15:18Z,Amsterdam Ave & W 82 St,7360.1,E 56 St & Madison Ave,6732.01,40.78524672,-73.97667321,40.761573,-73.972628,member
578E4864EF516B49,electric_bike,2022-04-26T15:46:38Z,2022-04-26T15:57:06Z,Schermerhorn St & Court St,4565.04,Reade St & Broadway,5247.1,40.69102925677968,-73.99183362722397,40.71450451,-74.00562789,member
F62BE435F12E6763,electric_bike,2022-04-16T18:51:39Z,2022-04-16T19:09:42Z,Eastern Pkwy & Franklin Ave,3919.07,Myrtle Ave & Marcy Ave,4707.03,40.6707767,-73.9576801,40.69539817,-73.94954908,member
BFFACB453D55DD9C,classic_bike,2022-04-05T08:47:36Z,2022-04-05T08:56:49Z,St Marks Pl & 4 Ave,4249.1,Fulton St & Adams St,4637.06,40.68177810928762,-73.97988975048065,40.692418292578466,-73.98949474096298,member
CBBA4A624BB4ED5A,classic_bike,2022-04-29T16:02:03Z,2022-04-29T16:21:10Z,E 41 St & Madison Ave (SE corner),6432.1,MacDougal St & Washington Sq,5797.01,40.752049,-73.979635,40.73226398,-73.99852205,casual
FE03F2875DE93CE7,classic_bike,2022-04-23T12:58:11Z,2022-04-23T13:21:31Z,Sands St & Jay St,4821.03,S 4 St & Wythe Ave,5204.05,40.700119,-73.9862,40.71285887,-73.96590294,casual
FF4C15626D047785,classic_bike,2022-04-18T06:11:49Z,2022-04-18T06:16:36Z,E 53 St & Lexington Ave,6617.09,E 47 St & 1 Ave,6498.09,40.75828065,-73.97069431,40.75206862,-73.96784384,member
74F09D08A10FFA13,classic_bike,2022-04-07T17:12:55Z,2022-04-07T17:18:20Z,Washington Pl & Broadway,5755.01,E 11 St & 3 Ave,5788.16,40.72903917,-73.99404649,40.73127,-73.98849,member
C88F0E490850A3A8,electric_bike,2022-04-14T20:15:23Z,2022-04-14T20:35:39Z,University Pl & E 14 St,5905.14,Maiden Ln & Pearl St,5065.1,40.734814,-73.992085,40.70706456,-74.00731853,casual
2A674327E3DEBE5A,electric_bike,2022-04-19T09:35:40Z,2022-04-19T10:02:40Z,7 Ave & 40 St,3266.01,Jay St & York St,4895.09,40.648169,-74.000057,40.70140317257725,-73.98672670125961,member
D572D130C61322B2,classic_bike,2022-04-17T14:52:40Z,2022-04-17T15:04:07Z,DeKalb Ave & Hudson Ave,4513.06,Clinton Ave & Flushing Ave,4762.04,40.689888,-73.981013,40.69794,-73.96986848,member
1C9DA5601F565920,electric_bike,2022-04-14T13:24:37Z,2022-04-14T13:59:31Z,Water St & Main St,4936.14,Centre St & Worth St,5279.03,40.703212,-73.990409,40.71494807,-74.00234482,casual
1546DD4961465705,classic_bike,2022-04-16T12:46:06Z,2022-04-16T13:02:21Z,Washington Ave & Greene Ave,4419.03,Front St & Jay St,4895.03,40.68650065,-73.96563307,40.702461,-73.986842,member
09D0961119C8296E,electric_bike,2022-04-14T13:22:03Z,2022-04-14T14:26:23Z,Eastern Pkwy & Washington Ave,3928.08,Columbia Heights & Cranberry St,4829.01,40.6716493,-73.9631145,40.70037867,-73.99548059,casual
A50E0A474541FC89,classic_bike,2022-04-23T09:23:23Z,2022-04-23T09:48:54Z,Christopher St & Greenwich St,5847.01,8 Ave & W 52 St,6816.07,40.73291553,-74.00711384,40.76370739,-73.9851615,casual
48128AE0927C3D9F,electric_bike,2022-04-27T19:41:18Z,2022-04-27T20:04:38Z,Adam Clayton Powell Blvd & W 141 St,7893.05,Adam Clayton Powell Blvd & W 141 St,7893.05,40.819241,-73.941057,40.819241,-73.941057,member
8D61359CEA131DEC,classic_bike,2022-04-29T10:47:37Z,2022-04-29T10:51:57Z,E 9 St & 5 Ave,5872.1,E 4 St & 2 Ave,5593.04,40.73275887045087,-73.99581670761108,40.7262807,-73.98978041,member
0CD45615FA4FA0DF,classic_bike,2022-04-27T13:35:11Z,2022-04-27T13:41:21Z,W 26 St & 10 Ave,6382.05,W 24 St & 7 Ave,6257.03,40.749717753,-74.002950346,40.74487634,-73.99529885,member
978FCDC8046B1AE6,electric_bike,2022-04-30T16:51:22Z,2022-04-30T16:57:28Z,6 Ave & 12 St,3803.05,29 St & 5 Ave,3523.06,40.6663181,-73.9854617,40.656986,-73.998194,casual
87E78D718ED2C6BE,classic_bike,2022-04-16T12:25:38Z,2022-04-16T12:29:58Z,W 87 St & West End Ave,7484.05,W 84 St & Columbus Ave,7382.04,40.789622,-73.97757,40.78499979,-73.97283406,member
0BC93E5CF8BC0BAC,electric_bike,2022-04-15T15:19:03Z,2022-04-15T15:39:37Z,Devoe St & Lorimer St,5259.06,Central Ave & Woodbine St,4632.1,40.71335226222875,-73.9491033554077,40.69296,-73.91605,member
48BBCCEA07269EB1,classic_bike,2022-04-01T18:28:58Z,2022-04-01T18:33:21Z,Hudson St & W 13 St,6115.06,W 22 St & 8 Ave,6224.03,40.74005708567285,-74.0052741765976,40.74475148,-73.99915362,member
5BC50C3FB57A4CBE,classic_bike,2022-04-08T09:54:00Z,2022-04-08T10:11:27Z,E 17 St & Broadway,5980.07,Washington Pl & Broadway,5755.01,40.73704984,-73.99009296,40.72903917,-73.99404649,member
EC87F45197BA9812,electric_bike,2022-04-18T13:34:20Z,2022-04-18T13:37:27Z,Orchard St & Grand St,5343.11,Rivington St & Ridge St,5406.02,40.717318403855785,-73.99067759513855,40.71850211,-73.98329859,member
CD004F71B06D521D,classic_bike,2022-04-06T15:35:36Z,2022-04-06T15:40:33Z,Nassau Ave & Newell St,5623.03,Driggs Ave & N 9 St,5411.08,40.724812564400175,-73.94752621650696,40.71816969454208,-73.95520135760307,member
5241F644475C8108,electric_bike,2022-04-22T15:40:13Z,2022-04-22T16:04:26Z,E 7 St & Ave C,5545.01,King St & Varick St,5687.11,40.72412944090093,-73.97901266813278,40.72789701409023,-74.00536268949507,member
12C2E5D21199A454,classic_bike,2022-04-17T11:10:44Z,2022-04-17T11:19:39Z,E 44 St & 2 Ave,6422.09,E 33 St & 5 Ave,6322.01,40.75118387463277,-73.97138714790344,40.74765947,-73.98490707,casual
34B2639552EC788C,electric_bike,2022-04-04T13:51:56Z,2022-04-04T13:52:54Z,Washington Square E,5755.09,Washington Square E,5755.09,40.73049393,-73.9957214,40.73049393,-73.9957214,member
5B9E92798817D0C0,classic_bike,2022-04-09T02:50:16Z,2022-04-09T02:54:20Z,West Broadway & Watts St,5569.07,Sullivan St & Washington Sq,5721.01,40.72323,-74.00314,40.73047747,-73.99906065,member
851013CD5743F44C,electric_bike,2022-04-15T19:47:53Z,2022-04-15T20:08:39Z,Delancey St & Eldridge St,5414.07,Monroe St & Tompkins Ave,4434.06,40.719383,-73.991479,40.686203,-73.944694,member
228F1BFCE810A03C,classic_bike,2022-04-13T11:41:25Z,2022-04-13T11:51:08Z,Leonard St & Maujer St,5148.03,Union Ave & Jackson St,5300.06,40.7103685423523,-73.94705951213837,40.7160751,-73.952029,member
CD43F127F2C148D8,classic_bike,2022-04-02T14:47:11Z,2022-04-02T15:09:16Z,2 Ave & E 31 St,6197.02,Clinton St & Grand St,5303.06,40.74290902,-73.97706058,40.71559509,-73.9870295,member
BCA9FBE2F013933B,electric_bike,2022-04-22T13:50:02Z,2022-04-22T13:54:49Z,Grand Army Plaza & Plaza St West,4010.15,7 Ave & Park Pl,4125.07,40.6729679,-73.97087984,40.6776147,-73.97324283,member
1BEF898F7F03C310,classic_bike,2022-04-23T15:31:59Z,2022-04-23T15:34:54Z,Irving Ave & Palmetto St,4775.01,Knickerbocker Ave & Hancock St,4663.02,40.698,-73.9127,40.69385,-73.90974,member
4B9E04468934303B,classic_bike,2022-04-22T08:05:19Z,2022-04-22T08:21:23Z,Sands St & Jay St,4821.03,Grand St & Elizabeth St,5382.06,40.700119,-73.9862,40.718822,-73.99596,member
8E10DFF1DA391D03,classic_bike,2022-04-14T22:20:23Z,2022-04-14T22:26:12Z,W 21 St & 6 Ave,6140.05,8 Ave & W 38 St,6526.05,40.74173969,-73.99415556,40.75461,-73.99177,member
E38D1C2834CF438C,classic_bike,2022-04-09T09:46:12Z,2022-04-09T09:55:15Z,7 Ave S & Bleecker St,5805.07,Hudson St & N Moore St,5470.13,40.73213896287381,-74.00363802909851,40.71988799798129,-74.0086269378662,casual
14FF9D84A710E01E,classic_bike,2022-04-24T15:02:58Z,2022-04-24T15:21:43Z,5 Ave & E 72 St,7100.07,2 Ave & E 72 St,6925.09,40.77282817,-73.96685276,40.7687620293096,-73.95840793848038,member
8BB6B523B95936BB,classic_bike,2022-04-13T16:44:58Z,2022-04-13T16:53:12Z,E 3 St & 1 Ave,5553.03,Barrow St & Hudson St,5805.05,40.72467721,-73.98783413,40.73172428,-74.00674436,member
EDB0F1EEF314DC75,classic_bike,2022-04-09T16:44:17Z,2022-04-09T17:02:13Z,University Pl & E 14 St,5905.14,E 17 St & Broadway,5980.07,40.734814,-73.992085,40.73704984,-73.99009296,member
124B6C05C36CC4E7,electric_bike,2022-04-04T21:36:01Z,2022-04-04T21:48:20Z,Forsyth St\t& Grand St,5382.07,Barclay St & Church St,5216.04,40.71779817737835,-73.99316132068634,40.71291224,-74.01020234,member
47535DD509327D05,electric_bike,2022-04-23T15:10:32Z,2022-04-23T15:25:40Z,1 Ave & E 39 St,6303.01,E 2 St & Avenue A,5553.1,40.74714,-73.97113,40.72307749068673,-73.98583620786667,member
3256F420026B02E2,electric_bike,2022-04-28T12:50:22Z,2022-04-28T12:57:04Z,S 4 St & Wythe Ave,5204.05,N 12 St & Bedford Ave,5450.04,40.71285887,-73.96590294,40.72079821,-73.95484712,member
5D48D1387D387318,classic_bike,2022-04-25T18:05:08Z,2022-04-25T18:13:35Z,West St & Chambers St,5329.03,Albany St & Greenwich St,5145.02,40.71754834,-74.01322069,40.709267,-74.013247,casual
807C6EDE27BEFE03,classic_bike,2022-04-21T19:06:27Z,2022-04-21T19:18:06Z,E 10 St & Avenue A,5659.05,King St & Varick St,5687.11,40.72740794,-73.98142006,40.72789701409023,-74.00536268949507,casual
C82DAF568927364E,classic_bike,2022-04-20T22:25:45Z,2022-04-20T22:32:31Z,Orchard St & Grand St,5343.11,E 5 St & Ave A,5626.06,40.717318403855785,-73.99067759513855,40.72479007746337,-73.98430064320564,member
369EE5FB4848202E,classic_bike,2022-04-14T16:22:44Z,2022-04-14T16:38:35Z,E 41 St & Madison Ave (SE corner),6432.1,W 22 St & 8 Ave,6224.03,40.752049,-73.979635,40.74475148,-73.99915362,casual
1AF569D6F8D976D4,classic_bike,2022-04-16T09:25:41Z,2022-04-16T09:47:50Z,E 106 St & Lexington Ave,7504.18,Central Park West & W 76 St,7253.04,40.791976,-73.945993,40.77896784,-73.97374737,casual
11DF15BF56598DAF,classic_bike,2022-04-24T15:38:56Z,2022-04-24T15:52:08Z,5 Ave & E 72 St,7100.07,East End Ave & E 86 St,7113.08,40.77282817,-73.96685276,40.77518615,-73.94446054,casual
F7363D8963C72051,docked_bike,2022-04-21T09:12:02Z,2022-04-21T09:31:04Z,Adam Clayton Powell Blvd & W 126 St,7738.04,Central Park W & W 91 St,7453.01,40.809495,-73.947765,40.788665,-73.966801,casual
8F0747D72831A61F,electric_bike,2022-04-01T16:56:38Z,2022-04-01T17:07:00Z,Broadway & W 53 St,6779.05,W 26 St & 8 Ave,6297.02,40.76344058,-73.98268129,40.74734825,-73.99723551,member
67C8972C8E14BF9C,electric_bike,2022-04-22T19:09:34Z,2022-04-22T19:33:57Z,Halsey St & Tompkins Ave,4319.07,Bayard St & Baxter St,5351.03,40.6823687,-73.944118,40.71602118,-73.99974372,member
55DB90C31DD2EEE9,classic_bike,2022-04-08T19:59:43Z,2022-04-08T20:05:39Z,W 20 St & 7 Ave,6182.02,W 16 St & The High Line,6233.05,40.74238787,-73.99726235,40.74334935,-74.00681753,member
E5BA1E63E8916977,classic_bike,2022-04-13T18:50:17Z,2022-04-13T19:13:59Z,6 Ave & W 34 St,6364.1,Division St & Bowery,5270.08,40.74964,-73.98805,40.714193,-73.996732,member
E8B8678C57813D94,classic_bike,2022-04-29T21:21:28Z,2022-04-29T21:28:13Z,Carroll St & Smith St,4225.14,Henry St & Atlantic Ave,4531.05,40.680611,-73.99475825,40.69089272,-73.99612349,casual
FF84B028B97EF316,classic_bike,2022-04-04T19:36:03Z,2022-04-04T19:38:11Z,W 49 St & 8 Ave,6747.06,9 Ave & W 45 St,6717.06,40.76227205,-73.98788205,40.76019252,-73.9912551,member
1C641FA043CE9C10,classic_bike,2022-04-24T16:36:33Z,2022-04-24T16:56:07Z,10 Ave & W 14 St,6157.04,Washington St & Barrow St,5847.08,40.741981599940225,-74.00831580162048,40.73191132323174,-74.008769094944,member
CF7C76B46AC902F3,classic_bike,2022-04-12T16:26:48Z,2022-04-12T16:42:28Z,W 34 St & 11 Ave,6578.01,Pier 40 - Hudson River Park,5696.03,40.75594159,-74.0021163,40.7277140777778,-74.01129573583603,member
17C98A35C81E76AC,electric_bike,2022-04-09T00:10:36Z,2022-04-09T00:21:09Z,50 St & 7 Ave,3038.08,6 Ave & 55 St,3000.08,40.642501,-74.006055,40.640831,-74.010996,casual
501C0A14E09A895E,electric_bike,2022-04-22T00:33:50Z,2022-04-22T00:44:04Z,St. Nicholas Ave & W 126 St,7756.1,Pleasant Ave & E 120 St,7579.01,40.8114323,-73.9518776,40.7974772,-73.9311847,casual
361A6255A5B7A216,docked_bike,2022-04-24T10:49:44Z,2022-04-24T11:09:28Z,8 Ave & W 38 St,6526.05,FDR Drive & E 35 St,6230.04,40.75461,-73.99177,40.744219,-73.971212,casual
CEB6B92A84BB63FF,electric_bike,2022-04-16T10:32:40Z,2022-04-16T10:36:15Z,Front St & Washington St,4936.01,Cadman Plaza E & Tillary St,4677.01,40.70255088,-73.98940236,40.69597683,-73.99014892,casual
84CBEE1537349AA8,electric_bike,2022-04-02T20:31:52Z,2022-04-02T20:41:29Z,Bleecker St & Crosby St,5679.08,Murray St & West St,5329.06,40.72615604980408,-73.99510189890862,40.7149787,-74.013012,member
146C01D5A48EBA9C,classic_bike,2022-04-12T14:20:01Z,2022-04-12T14:24:26Z,44 Dr & Jackson Ave,6352.01,31 St & Thomson Ave,6227.02,40.74718234,-73.9432635,40.74469738,-73.93540375,member
7F44A543E0A46AEE,classic_bike,2022-04-09T23:02:57Z,2022-04-09T23:13:58Z,3 Ave & E 72 St,7028.04,E 58 St & 3 Ave,6762.02,40.7699426,-73.96060712,40.76095756,-73.96724467,member
DB1384131E5CF25E,classic_bike,2022-04-06T19:41:49Z,2022-04-06T19:48:44Z,Grand Army Plaza & Central Park S,6839.1,Broadway & W 61 St,7014.12,40.7643971,-73.97371465,40.77003010255044,-73.9819684624672,member
82F81AF078943212,classic_bike,2022-04-22T23:57:21Z,2022-04-23T00:25:32Z,Berry St & N 8 St,5379.09,Central Ave & Covert St,4550.05,40.7190095,-73.95852515,40.68929,-73.90951,member
B58FA1ECDB781021,classic_bike,2022-04-30T12:33:27Z,2022-04-30T12:36:40Z,W 13 St & 7 Ave,6030.04,W 15 St & 6 Ave,5989.02,40.73781509,-73.99994661,40.738046142482766,-73.99642959237099,member
1326CCD3E72F796B,classic_bike,2022-04-30T17:54:36Z,2022-04-30T17:54:52Z,Dyckman St & Staff St,8655.02,Dyckman St & Staff St,8655.02,40.868846,-73.931537,40.868846,-73.931537,member
C3D37544174B4C90,classic_bike,2022-04-27T07:46:07Z,2022-04-27T07:54:28Z,Lexington Ave & E 26 St,6089.08,E 41 St & Madison Ave (SW corner),6474.12,40.741459,-73.983293,40.752165280621966,-73.97992193698882,member
B85025DEC17B9DC2,classic_bike,2022-04-10T19:14:41Z,2022-04-10T19:16:34Z,E 30 St & Park Ave S,6206.08,E 27 St & Park Ave S,6131.13,40.74444921,-73.98303529,40.74275179648995,-73.9847157150507,member
429A77D0FA2F8104,electric_bike,2022-04-14T14:56:11Z,2022-04-14T15:00:47Z,Broadway & E 21 St,6098.1,University Pl & E 8 St,5755.14,40.739888408589955,-73.98958593606949,40.73143724085228,-73.99490341544151,member
47BE81626AD04377,classic_bike,2022-04-02T14:49:20Z,2022-04-02T14:58:29Z,E 54 St & 1 Ave,6608.09,W 37 St & 5 Ave,6398.06,40.756265,-73.964179,40.75038009,-73.98338988,member
118BC0E8C0C9CAE4,classic_bike,2022-04-04T22:41:38Z,2022-04-04T22:53:59Z,W 20 St & 7 Ave,6182.02,Washington Square E,5755.09,40.74238787,-73.99726235,40.73049393,-73.9957214,casual
C4194A57469A7F38,classic_bike,2022-04-03T18:30:37Z,2022-04-03T18:37:45Z,Vernon Blvd & 47 Rd,6212.08,Queens Plaza North & Crescent St,6429.01,40.7449067,-73.9534573,40.75110165,-73.94073717,casual
C1EEB92794E23C13,electric_bike,2022-04-12T07:42:22Z,2022-04-12T07:51:29Z,Huron St & Franklin St,5869.04,Graham Ave & Grand St,5178.06,40.73266,-73.95826,40.711863,-73.944024,member
DF3CABAE92B0EC21,electric_bike,2022-04-19T07:55:32Z,2022-04-19T07:59:56Z,Broadway & W 29 St,6289.06,E 16 St & Irving Pl,5938.11,40.7462009,-73.98855723,40.735367055605394,-73.98797392845154,member
CBDAAD5D187B1BD0,classic_bike,2022-04-15T13:54:49Z,2022-04-15T14:10:51Z,Fulton St & Waverly Ave,4345.11,Pierrepont St & Monroe Pl,4718.08,40.683238654603414,-73.96599590778351,40.69535693320225,-73.99344027042389,member
ACBF23A26411C8E5,classic_bike,2022-04-28T01:57:52Z,2022-04-28T02:00:34Z,E 25 St & 1 Ave,6004.07,E 20 St & FDR Dr,5886.13,40.7381765,-73.97738662,40.733208626522426,-73.9756813647,member
E99932963DF52A6D,electric_bike,2022-04-01T07:46:18Z,2022-04-01T08:10:28Z,46 St & 25 Ave,6907.03,Milton St & Franklin St,5752.07,40.765753,-73.90676,40.72906,-73.95779,casual
26242F0702B3E1F0,classic_bike,2022-04-22T17:20:05Z,2022-04-22T17:30:12Z,3 Ave & 14 St,3850.03,President St & 4 Ave,4101.17,40.6685455,-73.99333264,40.676757,-73.983262,casual
FAD93AC8677B3624,electric_bike,2022-04-19T20:24:33Z,2022-04-19T20:40:49Z,30 Ave & 41 St,6812.06,Jackson Ave & 46 Rd,6203.02,40.763422,-73.914142,40.74524768,-73.94733276,member
31123775BA329CDC,classic_bike,2022-04-21T12:40:40Z,2022-04-21T13:05:25Z,Central Park West & W 76 St,7253.04,W 36 St & 9 Ave,6569.07,40.77896784,-73.97374737,40.75462324029105,-73.99516761302948,casual
54335BC5C230F9EB,electric_bike,2022-04-26T08:34:50Z,2022-04-26T08:45:04Z,W 50 St & 10 Ave,6890.06,E 44 St & 2 Ave,6422.09,40.764734200065185,-73.99194359779358,40.75118387463277,-73.97138714790344,member
405EED29C9620713,classic_bike,2022-04-14T23:27:18Z,2022-04-14T23:30:52Z,E 66 St & Madison Ave,6969.08,E 68 St & 3 Ave,6896.16,40.76800889305947,-73.96845281124115,40.76712840349542,-73.96224617958069,member
0270B7F47BD11D6A,classic_bike,2022-04-13T20:53:48Z,2022-04-13T21:02:09Z,S 3 St & Bedford Ave,5235.05,Leonard St & Boerum St,5036.06,40.71260486,-73.96264403,40.70583339,-73.94644578,casual
B9B31FE005D172D0,classic_bike,2022-04-02T15:19:49Z,2022-04-02T15:33:46Z,Morton St & Washington St,5772.05,5 Ave & E 29 St,6248.06,40.73115,-74.00887,40.7451677,-73.98683077,member
8CC44ECB80E81560,classic_bike,2022-04-27T08:35:55Z,2022-04-27T08:41:17Z,Carroll St & 6 Ave,4019.06,7 Ave & Park Pl,4125.07,40.6740886,-73.9787282,40.6776147,-73.97324283,member
E7814F0FBBE8E54A,electric_bike,2022-04-15T12:20:49Z,2022-04-15T13:12:52Z,W 51 St & 6 Ave,6740.1,5 Ave & E 78 St,7161.08,40.7606597,-73.98042047,40.77632142182271,-73.96427392959595,casual
112DE3997FA48CF8,classic_bike,2022-04-12T15:51:14Z,2022-04-12T15:55:14Z,1 Ave & E 68 St,6822.09,E 78 St & 2 Ave,7057.07,40.76500525,-73.95818491,40.7727966,-73.95577801,member
7AE458FB01DD7C9C,classic_bike,2022-04-18T16:26:52Z,2022-04-18T16:35:49Z,E 11 St & 3 Ave,5788.16,E 6 St & Avenue D,5506.14,40.73127,-73.98849,40.72228087,-73.97668709,member
F42ABCE4B4FBBD21,electric_bike,2022-04-10T08:00:29Z,2022-04-10T08:14:32Z,E 81 St & Park Ave,7188.1,Central Park West & W 68 St,7079.06,40.77677702,-73.9590097,40.7734066,-73.97782542,member
D3C968C02329F4AD,electric_bike,2022-04-29T07:50:16Z,2022-04-29T07:59:49Z,DeKalb Ave & S Portland Ave,4546.04,Union St & 4 Ave,4175.15,40.68981035,-73.97493121,40.6772744,-73.98282002,casual
94937670BE9CAE77,electric_bike,2022-04-14T10:16:09Z,2022-04-14T10:26:36Z,Bushwick Ave & Furman Ave,4317.05,Lewis Ave & Kosciuszko St,4617.01,40.68281,-73.90623,40.69237074,-73.93705428,member
E70030127825D211,classic_bike,2022-04-22T16:04:35Z,2022-04-22T16:07:06Z,E 102 St & Park Ave,7488.24,Madison Ave & E 99 St,7443.01,40.7904828,-73.95033068,40.78948541553215,-73.95242929458618,member
20AE57DB4AED3330,classic_bike,2022-04-30T16:33:36Z,2022-04-30T16:47:54Z,Pearl St & Peck Slip,5096.11,Allen St & Stanton St,5484.09,40.708485,-74.002751,40.722055,-73.989111,member
ADA4072A30A41A91,electric_bike,2022-04-17T02:32:43Z,2022-04-17T02:35:57Z,E 75 St & 3 Ave,6991.12,5 Ave & E 78 St,7161.08,40.77112927,-73.95772297,40.77632142182271,-73.96427392959595,casual
CB292265415BA003,electric_bike,2022-04-13T11:21:25Z,2022-04-13T11:27:18Z,Commerce St & Van Brunt St,4243.01,Kane St & Clinton St,4455.11,40.6812117,-74.00860912,40.6861758,-73.99645295,member
BB6D5C0911BD4E76,classic_bike,2022-04-26T13:05:05Z,2022-04-26T13:06:17Z,E 11 St & Avenue B,5659.11,Ave A & E 11 St,5703.13,40.72746420692392,-73.97950418293476,40.72854745023944,-73.98175925016403,member
AC06DA15FFABD89D,classic_bike,2022-04-03T02:16:06Z,2022-04-03T02:22:42Z,St Marks Pl & 1 Ave,5626.13,LaGuardia Pl & W 3 St,5721.14,40.72779126,-73.98564945,40.72917025,-73.99810231,member
055FA263DF3D8EF7,classic_bike,2022-04-08T08:13:07Z,2022-04-08T08:16:26Z,W 29 St & 9 Ave,6416.06,8 Ave & W 33 St,6450.12,40.7500727,-73.99839279,40.751551,-73.993934,member
E1A9990FBB78AF58,electric_bike,2022-04-10T15:25:56Z,2022-04-10T15:37:31Z,Devoe St & Morgan Ave,5282.02,S 4 St & Wythe Ave,5204.05,40.713811,-73.93515,40.71285887,-73.96590294,casual
F56A667A103ECFA9,classic_bike,2022-04-05T07:46:05Z,2022-04-05T07:52:40Z,W 43 St & 10 Ave,6756.01,8 Ave & W 33 St,6450.12,40.76009437,-73.99461843,40.751551,-73.993934,member
14BE96121801E37F,electric_bike,2022-04-04T08:07:47Z,2022-04-04T08:16:00Z,E 40 St & Park Ave,6432.11,Broadway & W 25 St,6173.08,40.750756,-73.978326,40.74286877312112,-73.98918628692627,member
A67DF6B671D8F81B,classic_bike,2022-04-05T11:34:24Z,2022-04-05T11:56:40Z,Washington St & Laight St,5509.02,Broadway & E 21 St,6098.1,40.72231,-74.0106,40.739888408589955,-73.98958593606949,casual
C14722D530B4DF68,electric_bike,2022-04-15T17:22:37Z,2022-04-15T17:27:05Z,Stanton St & Norfolk St,5445.07,E 5 St & Cooper Sq,5712.12,40.720747,-73.986274,40.72769,-73.990993,member
674F20A805E5A746,classic_bike,2022-04-24T13:09:33Z,2022-04-24T13:23:42Z,W 39 St & 9 Ave,6644.04,Hudson St & W 13 St,6115.06,40.75645824,-73.99372222,40.74005708567285,-74.0052741765976,casual
CB8B330ABDCB5426,classic_bike,2022-04-09T03:07:14Z,2022-04-09T03:09:25Z,10 Ave & W 28 St,6459.04,W 26 St & 8 Ave,6297.02,40.75066386,-74.00176802,40.74734825,-73.99723551,member
69EDAE7A8E68F52B,classic_bike,2022-04-04T18:06:57Z,2022-04-04T18:16:46Z,Flushing Ave & Vanderbilt Ave,4762.05,Hanson Pl & Ashland Pl,4395.07,40.69795031569544,-73.97077560424805,40.68506807308177,-73.97790759801863,member
110090C85DD7401F,electric_bike,2022-04-26T15:32:03Z,2022-04-26T15:50:07Z,Avenue C & E 18 St,5769.04,W 41 St & 8 Ave,6602.03,40.730563,-73.973984,40.75640548,-73.9900262,casual
A4835B94A84AF578,electric_bike,2022-04-02T18:16:11Z,2022-04-02T18:25:39Z,Greenwich St & W Houston St,5730.08,Park Pl & Church St,5288.08,40.728846,-74.008591,40.71334184275907,-74.00935515761375,member
D74A1C70C03B46B6,classic_bike,2022-04-30T00:28:15Z,2022-04-30T00:55:49Z,Amsterdam Ave & W 79 St,7311.02,6 Ave & W 34 St,6364.1,40.7829391,-73.9786517,40.74964,-73.98805,member
42E8205FB8034C79,classic_bike,2022-04-22T23:12:32Z,2022-04-22T23:49:41Z,W 42 St & 8 Ave,6602.05,6 Ave & W 33 St,6364.07,40.7575699,-73.99098507,40.74901271,-73.98848395,casual
F82B71435CF18C51,electric_bike,2022-04-14T15:10:26Z,2022-04-14T15:11:37Z,Calyer St & Jewel St,5743.02,Calyer St & Jewel St,5743.02,40.72984,-73.94839,40.72984,-73.94839,casual
969B1DF1A44219FF,electric_bike,2022-04-04T12:53:23Z,2022-04-04T13:38:10Z,Henry St & Middagh St,4861.05,Water St & Main St,4936.14,40.7003,-73.991581,40.703212,-73.990409,casual
E6941F673002209B,classic_bike,2022-04-29T15:42:02Z,2022-04-29T16:13:05Z,W 4 St & 7 Ave S,5880.02,Pearl St & Peck Slip,5096.11,40.73401143,-74.00293877,40.708485,-74.002751,member
8F88CBFF78728DEF,classic_bike,2022-04-27T08:57:58Z,2022-04-27T09:01:53Z,E 20 St & 2 Ave,5971.08,E 16 St & Irving Pl,5938.11,40.73587678,-73.98205027,40.735367055605394,-73.98797392845154,member
E9A749084E4D61CA,electric_bike,2022-04-30T15:29:16Z,2022-04-30T15:34:25Z,Carroll St & 6 Ave,4019.06,10 St & 7 Ave,3762.08,40.6740886,-73.9787282,40.6662078,-73.98199886,member
7907D869EFEDA4D7,classic_bike,2022-04-28T09:38:27Z,2022-04-28T09:59:07Z,W 46 St & 11 Ave,6795.01,4 Ave & E 12 St,5788.15,40.76341379,-73.99667444,40.732647,-73.99011,member
220CA80E308CA556,electric_bike,2022-04-01T13:49:23Z,2022-04-01T13:49:58Z,W 35 St & 9 Ave,6569.09,W 35 St & 9 Ave,6569.09,40.75414519263519,-73.9960889518261,40.75414519263519,-73.9960889518261,member
580C70F32C0FF2E8,classic_bike,2022-04-28T11:45:03Z,2022-04-28T11:59:00Z,Greenwich Ave & 8 Ave,6072.06,St Marks Pl & 2 Ave,5669.1,40.7390169121,-74.0026376103,40.7284186,-73.98713956,casual
92283FC77FB43F33,classic_bike,2022-04-13T12:52:08Z,2022-04-13T13:02:03Z,10 St & 7 Ave,3762.08,Underhill Ave & Pacific St,4231.04,40.6662078,-73.98199886,40.6804836,-73.9646795,member
FDFFF20A1640267C,classic_bike,2022-04-04T18:06:21Z,2022-04-04T18:15:23Z,Lexington Ave & E 24 St,6089.07,W 18 St & 6 Ave,6064.08,40.74025878,-73.98409214,40.73971301,-73.99456405,member
9423353CE39BC1B0,classic_bike,2022-04-23T13:42:53Z,2022-04-23T14:24:25Z,W 15 St & 10 Ave,6115.09,West St & Chambers St,5329.03,40.742753828659026,-74.00747358798981,40.71754834,-74.01322069,casual
2008901A65034610,classic_bike,2022-04-29T17:38:13Z,2022-04-29T17:47:32Z,State St & Smith St,4522.07,Bergen St & Vanderbilt Ave,4157.1,40.68917,-73.9886,40.6794388,-73.9680438,member
5E314ADD931D1E41,classic_bike,2022-04-29T15:42:33Z,2022-04-29T15:47:14Z,Steinway St & Broadway,6711.13,31 St & Broadway,6789.04,40.75905795418586,-73.91897544264793,40.761584,-73.925921,member
013772E3B58D66F1,classic_bike,2022-04-16T13:27:51Z,2022-04-16T13:47:37Z,Albany St & Greenwich St,5145.02,Allen St & Rivington St,5414.06,40.709267,-74.013247,40.72019576,-73.98997825,member
F185E40A877AB64B,classic_bike,2022-04-15T21:51:04Z,2022-04-15T21:54:03Z,W 22 St & 8 Ave,6224.03,W 22 St & 10 Ave,6306.06,40.74475148,-73.99915362,40.74691959,-74.00451887,member
B09E289FE5C12782,electric_bike,2022-04-03T00:00:07Z,2022-04-03T00:07:26Z,Cadman Plaza E & Tillary St,4677.01,Carroll St & Smith St,4225.14,40.69597683,-73.99014892,40.680611,-73.99475825,member
C471692257B125A0,classic_bike,2022-04-01T09:26:44Z,2022-04-01T09:41:55Z,W 51 St & 6 Ave,6740.1,1 Ave & E 62 St,6753.08,40.7606597,-73.98042047,40.7612274,-73.96094022,member
B1C91C13EC4CDFF6,classic_bike,2022-04-23T18:18:59Z,2022-04-23T18:32:40Z,E 44 St & 2 Ave,6422.09,Broadway & W 58 St,6948.1,40.75118387463277,-73.97138714790344,40.76695317,-73.98169333,member
BC7EA7974840768C,electric_bike,2022-04-25T18:20:09Z,2022-04-25T18:26:49Z,Little West St & 1 Pl,5001.08,Greenwich St & Hubert St,5470.1,40.70569254,-74.01677685,40.721319,-74.010065,member
080B65634888853C,classic_bike,2022-04-22T18:04:26Z,2022-04-22T18:04:46Z,Riverside Dr & W 104 St,7623.13,Riverside Dr & W 104 St,7623.13,40.8013434,-73.9711457439,40.8013434,-73.9711457439,member
3BC5AE3DD2B46F12,classic_bike,2022-04-26T07:36:34Z,2022-04-26T07:41:21Z,Central Park North & Adam Clayton Powell Blvd,7617.07,5 Ave & E 103 St,7511.19,40.799484,-73.955613,40.7922553,-73.95249933,member
AD734BD305628D5A,classic_bike,2022-04-11T16:54:26Z,2022-04-11T17:02:55Z,Amsterdam Ave & W 73 St,7260.09,8 Ave & W 52 St,6816.07,40.77966809007312,-73.98093044757842,40.76370739,-73.9851615,member
6212D327683ACA49,classic_bike,2022-04-16T09:25:00Z,2022-04-16T09:31:13Z,Wythe Ave & Metropolitan Ave,5348.02,Union Ave & N 12 St,5411.07,40.716887,-73.963198,40.71924,-73.95242,member
FE77928A14C3DE1B,electric_bike,2022-04-14T19:45:15Z,2022-04-14T19:50:45Z,E 20 St & FDR Dr,5886.13,E Houston St & Columbia St,5436.11,40.733208626522426,-73.9756813647,40.71978635452822,-73.97871628403664,member
DCBF335BB68CB89C,classic_bike,2022-04-23T11:18:08Z,2022-04-23T12:10:41Z,Amsterdam Ave & W 82 St,7360.1,W 16 St & The High Line,6233.05,40.78524672,-73.97667321,40.74334935,-74.00681753,casual
72AD41677B8F0CA6,classic_bike,2022-04-02T16:57:42Z,2022-04-02T17:09:23Z,Schermerhorn St & Bond St,4479.08,Lafayette Ave & St James Pl,4494.04,40.688417427540834,-73.98451656103134,40.68851534,-73.9647628,casual
F2D7CE49667F76FC,electric_bike,2022-04-01T03:37:28Z,2022-04-01T03:49:03Z,E 102 St & 1 Ave,7407.13,St. Nicholas Ave & W 126 St,7756.1,40.7869946,-73.94164802,40.8114323,-73.9518776,member
E47BBC6F6AE5DC1F,electric_bike,2022-04-14T07:08:53Z,2022-04-14T07:15:54Z,Tinton Ave & E 165 St,7991.01,Longwood Ave & Southern Blvd,7849.1,40.824796,-73.90242,40.816343,-73.896447,member
80091E7C8D85F69B,classic_bike,2022-04-11T18:22:17Z,2022-04-11T18:25:17Z,Montague St & Clinton St,4677.06,Henry St & Atlantic Ave,4531.05,40.6942715,-73.9923272,40.69089272,-73.99612349,member
094C4C6D77913F3F,classic_bike,2022-04-17T22:55:22Z,2022-04-17T23:07:25Z,Watts St & Greenwich St,5578.02,Gansevoort St & Hudson St,6072.14,40.72405549,-74.00965965,40.73944820130403,-74.00507032871246,casual
4B3D4DD6FC8FE5AF,electric_bike,2022-04-12T07:55:57Z,2022-04-12T08:11:25Z,E 84 St & 1 Ave,7180.02,West End Ave & W 60 St,7059.08,40.77565541,-73.95068615,40.77237,-73.99005,member
F43E035FBA11FC4F,classic_bike,2022-04-27T11:40:36Z,2022-04-27T11:43:36Z,1 Ave & E 18 St,5854.09,E 27 St & 1 Ave,6004.06,40.733812191966315,-73.98054420948029,40.739445,-73.976806,member
16737709EB948407,classic_bike,2022-04-13T09:43:20Z,2022-04-13T09:54:32Z,Lenox Ave & W 115 St,7627.1,W 116 St & Amsterdam Ave,7692.11,40.8011939,-73.9500739,40.8067581,-73.9607082,member
C6D13A044F45238C,electric_bike,2022-04-09T09:05:50Z,2022-04-09T09:09:56Z,E 51 St & 1 Ave,6532.06,E 58 St & 3 Ave,6762.02,40.75455731,-73.96592976,40.76095756,-73.96724467,member
90F194AECED97191,electric_bike,2022-04-16T09:07:47Z,2022-04-16T09:14:34Z,Wythe Ave & Metropolitan Ave,5348.02,Graham Ave & Conselyea St,5291.05,40.716887,-73.963198,40.715143,-73.944507,casual
D4BBA4CF936D1C03,classic_bike,2022-04-29T16:21:04Z,2022-04-29T16:33:07Z,Broadway & W 25 St,6173.08,W 15 St & 6 Ave,5989.02,40.74286877312112,-73.98918628692627,40.738046142482766,-73.99642959237099,casual
74639BA297021D08,electric_bike,2022-04-02T00:09:50Z,2022-04-02T00:16:01Z,E 10 St & Avenue A,5659.05,E 7 St & Avenue A,5626.07,40.72740794,-73.98142006,40.72621788,-73.98379855,casual
82EDAD7575AAD1A7,docked_bike,2022-04-10T10:08:52Z,2022-04-10T10:16:07Z,E 44 St & 2 Ave,6422.09,E 44 St & 2 Ave,6422.09,40.751184,-73.971386999999993,40.751184,-73.971386999999993,casual
A6DBC69FFDFB2756,classic_bike,2022-04-01T11:56:27Z,2022-04-01T12:07:02Z,E 81 St & 2 Ave,7121.05,5 Ave & E 72 St,7100.07,40.774779448957275,-73.95427465438843,40.77282817,-73.96685276,member
788DB54923CC778F,classic_bike,2022-04-21T09:37:28Z,2022-04-21T09:39:53Z,Columbus Ave & W 72 St,7175.05,Central Park West & W 72 St,7141.07,40.7770575,-73.97898475,40.77579376683666,-73.9762057363987,member
8E384CB4701D0FE8,electric_bike,2022-04-15T12:48:09Z,2022-04-15T13:11:21Z,5 Ave & E 93 St,7372.1,Broadway & W 58 St,6948.1,40.7857851,-73.957481,40.76695317,-73.98169333,casual
AA01F9E8D1CBC1F9,classic_bike,2022-04-13T09:11:47Z,2022-04-13T09:35:13Z,Franklin Ave & St Marks Ave,4107.05,Flushing Ave & Woodward Ave,5225.02,40.6758324,-73.9561677,40.71246,-73.91873,member
472BC8C9C73449F1,electric_bike,2022-04-15T13:57:25Z,2022-04-15T14:12:04Z,King St & Varick St,5687.11,E 12 St & 3 Ave,5788.12,40.72789701409023,-74.00536268949507,40.73223272,-73.98889957,member
6D8F8BFAA522033E,classic_bike,2022-04-28T18:50:40Z,2022-04-28T18:54:03Z,Liberty St & Nassau St,5105.09,Water St &  Fletcher St,5024.1,40.70858894240581,-74.00935482235809,40.706410755236135,-74.00559738278389,member
18F7C2B741770561,classic_bike,2022-04-12T14:30:54Z,2022-04-12T14:43:15Z,Icahn Stadium,7514.01,2 Ave & E 125 St,7648.16,40.79346,-73.92389,40.802554,-73.933509,member
ABFFE6A33AF251CA,classic_bike,2022-04-24T12:58:19Z,2022-04-24T13:05:41Z,Avenue D & E 10 St,5575.13,E 2 St & Avenue C,5476.03,40.72506551015475,-73.97515833377838,40.7208736,-73.98085795,casual
AD3C3BE69E5BA659,classic_bike,2022-04-27T16:21:21Z,2022-04-27T16:21:34Z,E 65 St & 2 Ave,6860.12,E 65 St & 2 Ave,6860.12,40.76471851944339,-73.96222069859505,40.76471851944339,-73.96222069859505,member
0A22B9368B475A90,electric_bike,2022-04-27T07:48:20Z,2022-04-27T07:59:23Z,W 225 St & Exterior St,8711.02,E Fordham Rd & Webster Ave,8582.09,40.873265,-73.906646,40.861748,-73.89105,member
316A30DDE8505A27,classic_bike,2022-04-14T16:58:21Z,2022-04-14T17:15:14Z,Franklin St & W Broadway,5430.08,8 Ave & W 31 St,6450.05,40.71911552,-74.00666661,40.7505853470215,-73.9946848154068,member
25F6EB632F2F84A8,electric_bike,2022-04-04T10:34:54Z,2022-04-04T10:39:18Z,E 32 St & Park Ave,6280.12,E 41 St & Madison Ave (SW corner),6474.12,40.7457121,-73.98194829,40.752165280621966,-73.97992193698882,member
D42F12529464B8C7,classic_bike,2022-04-21T18:59:21Z,2022-04-21T19:12:55Z,5 Ave & E 93 St,7372.1,W 106 St & Central Park West,7606.01,40.7857851,-73.957481,40.7981856,-73.9605909006,member
9D6E11F54C87D8C4,electric_bike,2022-04-03T02:23:44Z,2022-04-03T02:32:25Z,Bushwick Ave & Powers St,5250.05,Stanhope St & Fairview Ave,5146.03,40.71247661,-73.94100005,40.70998,-73.91116,casual
D372A8820E077962,electric_bike,2022-04-13T14:03:27Z,2022-04-13T15:35:47Z,Central Park West & W 72 St,7141.07,St Marks Pl & 2 Ave,5669.1,40.77579376683666,-73.9762057363987,40.7284186,-73.98713956,member
6EA1275BAE29BBC4,electric_bike,2022-04-11T15:05:06Z,2022-04-11T15:06:05Z,W 18 St & 6 Ave,6064.08,W 18 St & 6 Ave,6064.08,40.73971301,-73.99456405,40.73971301,-73.99456405,member
3028B92F3D3FA1F3,classic_bike,2022-04-10T04:20:10Z,2022-04-10T04:30:31Z,Walker St & Baxter St,5351.07,E 10 St & Avenue A,5659.05,40.717411,-73.999573,40.72740794,-73.98142006,casual
C7DD462F8D3ADA36,classic_bike,2022-04-12T18:33:13Z,2022-04-12T18:40:15Z,North Moore St & Greenwich St,5470.12,Vesey Pl & River Terrace,5297.02,40.72019521437465,-74.0103006362915,40.7153379,-74.01658354,member
11F5C17A494AA597,classic_bike,2022-04-12T14:55:55Z,2022-04-12T15:07:36Z,Tiebout Ave & E 184 St,8510.02,Decatur Ave & Oliver Pl,8631.03,40.858498,-73.89637,40.867,-73.8857764,casual
E3629667BCC4F460,classic_bike,2022-04-24T14:52:16Z,2022-04-24T16:21:59Z,Broadway & W 58 St,6948.1,Hudson St & W 13 St,6115.06,40.76695317,-73.98169333,40.74005708567285,-74.0052741765976,casual
1B4B9886D1EE8456,electric_bike,2022-04-07T17:31:41Z,2022-04-07T17:33:04Z,E 7 St & Avenue A,5626.07,E 5 St & Ave A,5626.06,40.72621788,-73.98379855,40.72479007746337,-73.98430064320564,member
ED3382BD30804608,classic_bike,2022-04-28T16:27:46Z,2022-04-28T16:38:59Z,Ashland Pl & Dekalb Ave,4513.09,Dock St & Front St,4903.09,40.690065,-73.978776,40.702709,-73.99253,member
0FFB71F503CD1E4A,classic_bike,2022-04-14T10:53:37Z,2022-04-14T10:56:58Z,DeKalb Ave & Franklin Ave,4528.01,Emerson Pl & Myrtle Ave,4683.02,40.69064807082943,-73.95746178925037,40.69363137,-73.96223558,member
FDFEB1A0E591F429,electric_bike,2022-04-22T12:54:48Z,2022-04-22T12:59:43Z,Smith St & 9 St,4077.04,Wolcott St & Dwight St,4054.02,40.6746957,-73.99785768,40.6753274,-74.0100698,member
5321FC5A2105BB45,classic_bike,2022-04-09T19:14:36Z,2022-04-09T19:24:00Z,11 Ave & W 59 St,7059.01,Riverside Dr & W 72 St,7288.04,40.77149671054441,-73.99046033620834,40.78057799010334,-73.98562431335449,member
F49D05B28D8736C8,electric_bike,2022-04-29T18:06:55Z,2022-04-29T18:24:49Z,Henry St & Atlantic Ave,4531.05,Bay St & Court St,3931.09,40.69089272,-73.99612349,40.671409,-74.001328,casual
ACD048777FBBA4D4,classic_bike,2022-04-27T19:31:33Z,2022-04-27T19:37:40Z,W 54 St & 9 Ave,6920.03,W 42 St & 8 Ave,6602.05,40.76584941,-73.98690506,40.7575699,-73.99098507,member
652D0CF794A865EC,electric_bike,2022-04-06T16:59:32Z,2022-04-06T17:05:09Z,Schermerhorn St & Bond St,4479.08,DeKalb Ave & S Portland Ave,4546.04,40.688417427540834,-73.98451656103134,40.68981035,-73.97493121,casual
35706AF37BC86538,electric_bike,2022-04-30T05:17:09Z,2022-04-30T05:38:38Z,W 100 St & Manhattan Ave,7538.14,W 36 St & 9 Ave,6569.07,40.795,-73.9645,40.75462324029105,-73.99516761302948,member
C8E80E0ABF669143,classic_bike,2022-04-12T15:45:14Z,2022-04-12T16:00:58Z,W 44 St & 5 Ave,6551.02,University Pl & E 14 St,5905.14,40.75500254,-73.98014437,40.734814,-73.992085,member
AB16BAE57949B2BD,electric_bike,2022-04-24T14:07:49Z,2022-04-24T15:44:27Z,Roosevelt Island Tramway,6599.01,Roosevelt Island Tramway,6599.01,40.757284,-73.9536,40.757284,-73.9536,casual
A947A8466345AB14,electric_bike,2022-04-18T13:55:22Z,2022-04-18T14:17:33Z,Broadway & Roebling St,5125.07,Rogers Ave & Sterling St,3696.05,40.70924826276157,-73.96063148975372,40.6630619,-73.9538746,member
C539160B042BD14A,classic_bike,2022-04-24T13:13:45Z,2022-04-24T13:35:48Z,Steinway St & Ditmars Blvd,7074.01,Ditmars Blvd & 43 St,7039.03,40.772717,-73.906127,40.771203,-73.903865,member
DDC6CB31D82494D6,classic_bike,2022-04-01T16:20:38Z,2022-04-01T16:26:00Z,W 22 St & 8 Ave,6224.03,W 27 St & 7 Ave,6247.06,40.74475148,-73.99915362,40.746647,-73.993915,member
C1CD5A482FE3FB3F,electric_bike,2022-04-13T20:11:30Z,2022-04-13T21:13:16Z,Clinton St & Grand St,5303.06,Grand St & Elizabeth St,5382.06,40.71559509,-73.9870295,40.718822,-73.99596,member
1F138893AEE75E8C,classic_bike,2022-04-26T13:39:47Z,2022-04-26T13:43:44Z,1 Ave & E 30 St,6079.03,E 20 St & 2 Ave,5971.08,40.74144387,-73.97536082,40.73587678,-73.98205027,member
32B19FDC8128EAA9,classic_bike,2022-04-07T08:41:36Z,2022-04-07T08:41:57Z,E 19 St & 3 Ave,5938.01,E 19 St & 3 Ave,5938.01,40.73624527,-73.98473765,40.73624527,-73.98473765,member
1AC2E108F81130B8,classic_bike,2022-04-03T13:59:24Z,2022-04-03T14:07:35Z,W 12 St & Hudson St,5997.1,W 27 St & 7 Ave,6247.06,40.73752993301071,-74.00558933615685,40.746647,-73.993915,member
6843D20E413B8E0F,classic_bike,2022-04-12T19:24:48Z,2022-04-12T19:50:34Z,Front St & Washington St,4936.01,Lexington Ave & E 26 St,6089.08,40.70255088,-73.98940236,40.741459,-73.983293,member
DBFB3B931BA7CE22,electric_bike,2022-04-12T12:57:43Z,2022-04-12T13:27:53Z,9 Ave & W 45 St,6717.06,5 Ave & E 78 St,7161.08,40.76019252,-73.9912551,40.77632142182271,-73.96427392959595,casual
640EEFBE786D6C59,classic_bike,2022-04-26T08:31:02Z,2022-04-26T08:36:40Z,Henry St & Degraw St,4380.08,Montague St & Clinton St,4677.06,40.6847514,-73.99917254,40.6942715,-73.9923272,casual
62D478C4029194C6,classic_bike,2022-04-13T15:57:58Z,2022-04-13T16:06:43Z,Washington Square E,5755.09,E 5 St & Avenue C,5545.04,40.73049393,-73.9957214,40.72299208,-73.97995466,member
95BCFF4ED0FEBE0A,classic_bike,2022-04-06T15:30:08Z,2022-04-06T15:41:10Z,Delancey St & Eldridge St,5414.07,Avenue D & E 3 St,5436.09,40.719383,-73.991479,40.72082834,-73.97793172,member
B7DFDD374B0F86B8,classic_bike,2022-04-24T12:23:28Z,2022-04-24T12:52:52Z,E 67 St & Park Ave,6932.14,E 25 St & 2 Ave,6046.02,40.76780080148132,-73.96592080593109,40.73912601,-73.97973776,casual
B664AECE8CC9FF0B,classic_bike,2022-04-30T14:02:25Z,2022-04-30T14:10:17Z,E 132 St & Madison Ave,7748.02,Lenox Ave & W 126 St,7720.03,40.810224,-73.937195,40.808442,-73.9452087,casual
4147740F9B6A013E,classic_bike,2022-04-09T15:03:52Z,2022-04-09T15:20:16Z,W 15 St & 6 Ave,5989.02,Washington St & Gansevoort St,6039.06,40.738046142482766,-73.99642959237099,40.739323,-74.008119,member
49C7F43B0890EEED,classic_bike,2022-04-24T15:38:46Z,2022-04-24T15:44:34Z,W 47 St & 6 Ave,6667.04,Central Park S & 6 Ave,6876.04,40.758397,-73.98255,40.76590936,-73.97634151,member
05EDBDA76395446C,classic_bike,2022-04-12T17:27:00Z,2022-04-12T17:32:53Z,8 Ave & W 49 St,6747.07,8 Ave & W 38 St,6526.05,40.76171227910671,-73.98655101656914,40.75461,-73.99177,member
7E4C1961671015D4,classic_bike,2022-04-13T12:25:43Z,2022-04-13T12:42:50Z,Huron St & Franklin St,5869.04,S 4 St & Wythe Ave,5204.05,40.73266,-73.95826,40.71285887,-73.96590294,casual
8397B600D8038209,classic_bike,2022-04-23T20:11:26Z,2022-04-23T20:13:05Z,E 2 St & Avenue C,5476.03,E Houston St & Columbia St,5436.11,40.7208736,-73.98085795,40.71978635452822,-73.97871628403664,member
A6F180558ADE1A73,classic_bike,2022-04-26T08:10:12Z,2022-04-26T08:40:43Z,Driggs Ave & N Henry St,5542.04,William St & Pine St,5065.12,40.72325,-73.94308,40.70717936,-74.00887308,member
7061EF847CF7049E,electric_bike,2022-04-19T23:52:21Z,2022-04-19T23:59:28Z,6 Ave & Walker St,5430.1,Bleecker St & Crosby St,5679.08,40.7197920901383,-74.0052238852195,40.72615604980408,-73.99510189890862,member
296240A41AF58269,electric_bike,2022-04-28T22:57:04Z,2022-04-28T23:16:00Z,Butler St & Court St,4339.01,Willoughby Ave & Tompkins Ave,4665.02,40.6849894,-73.99440329,40.69425403,-73.94626915,member
746B61D4DAE7A2F5,classic_bike,2022-04-16T16:13:49Z,2022-04-16T16:25:21Z,8 Ave & W 38 St,6526.05,Greenwich Ave & Charles St,5914.08,40.75461,-73.99177,40.735238,-74.000271,member
CDB8CBEDBBB738BC,classic_bike,2022-04-27T10:05:38Z,2022-04-27T10:12:08Z,DeKalb Ave & S Portland Ave,4546.04,Dock 72 Way & Market St,4804.02,40.68981035,-73.97493121,40.69985,-73.97141,member
963940AD4B866325,electric_bike,2022-04-02T11:35:46Z,2022-04-02T12:07:36Z,W 18 St & 9 Ave,6190.03,Banker St & Meserole Ave,5633.04,40.7435337324616,-74.00367558002472,40.72606,-73.95621,member
9EDC24BC3ECDD458,classic_bike,2022-04-15T12:49:04Z,2022-04-15T13:00:14Z,State St & Smith St,4522.07,Henry St & Middagh St,4861.05,40.68917,-73.9886,40.7003,-73.991581,member
98C6CF0F662A8278,electric_bike,2022-04-30T12:07:21Z,2022-04-30T12:08:42Z,E 91 St & 2 Ave,7286.01,E 91 St & 2 Ave,7286.01,40.78115276427915,-73.94963040947914,40.78115276427915,-73.94963040947914,member
7B8351BB15636071,electric_bike,2022-04-28T19:50:16Z,2022-04-28T19:57:41Z,Lafayette St & Jersey St,5561.06,Cooper Square & Astor Pl,5712.03,40.72456089,-73.99565293,40.72951496224949,-73.99075269699097,member
95E37D63273B881A,classic_bike,2022-04-28T15:44:20Z,2022-04-28T15:52:07Z,Devoe St & Lorimer St,5259.06,Leonard St & Nassau Ave,5550.09,40.71335226222875,-73.9491033554077,40.7239567849954,-73.94984364509583,casual
C6B00CE443924D35,electric_bike,2022-04-26T20:42:06Z,2022-04-26T21:02:28Z,W 35 St & 9 Ave,6569.09,E 2 St & Avenue C,5476.03,40.75414519263519,-73.9960889518261,40.7208736,-73.98085795,member
189A5980D67DABB3,classic_bike,2022-04-16T12:39:33Z,2022-04-16T12:50:22Z,9 Ave & W 45 St,6717.06,8 Ave & W 16 St,6072.11,40.76019252,-73.9912551,40.740983,-74.001702,member
DAD524FFBCBB453D,electric_bike,2022-04-26T16:24:48Z,2022-04-26T16:28:54Z,6 Ave & W 45 St,6593.15,W 41 St & 8 Ave,6602.03,40.756951,-73.982631,40.75640548,-73.9900262,member
B77EF2B581EA3451,electric_bike,2022-04-14T22:43:13Z,2022-04-14T22:53:05Z,Central Park West & W 85 St,7354.01,W 106 St & Central Park West,7606.01,40.78476,-73.969862,40.7981856,-73.9605909006,member
1F5373EE7A7AF5B0,classic_bike,2022-04-29T20:01:38Z,2022-04-29T20:16:12Z,Bayard St & Leonard St,5442.05,Wythe Ave & Metropolitan Ave,5348.02,40.71915571696044,-73.94885390996933,40.716887,-73.963198,member
DD32BA323F432D02,classic_bike,2022-04-14T07:49:25Z,2022-04-14T07:52:49Z,Columbus Ave & W 72 St,7175.05,W 63 St & Broadway,7052.01,40.7770575,-73.97898475,40.77163851,-73.98261428,member
2CC50A109218BEC6,classic_bike,2022-04-28T17:05:25Z,2022-04-28T17:05:28Z,Grant Ave & E 169 St,8141.01,Grant Ave & E 169 St,8141.01,40.83579,-73.913741,40.83579,-73.913741,member
C7F48327B9A31A80,classic_bike,2022-04-06T21:12:36Z,2022-04-06T21:28:37Z,Grand Ave & Bergen St,4190.06,Clinton St & Joralemon St,4605.04,40.678045,-73.962408,40.69239502,-73.99337909,casual
4E5FBB5847DCF0E3,classic_bike,2022-04-11T17:23:58Z,2022-04-11T17:43:03Z,Allen St & Hester St,5342.1,1 Ave & E 39 St,6303.01,40.71605866,-73.99190759,40.74714,-73.97113,member
9F947306529187BE,electric_bike,2022-04-19T17:02:23Z,2022-04-19T17:06:36Z,9 Ave & W 45 St,6717.06,W 56 St & 8 Ave,6884.03,40.76019252,-73.9912551,40.765959181657976,-73.98313522338867,member
AB4FE3B4CAB091F4,electric_bike,2022-04-06T16:30:17Z,2022-04-06T17:06:18Z,5 Ave & E 87 St,7323.09,West End Ave & W 60 St,7059.08,40.78232260730881,-73.95987510681152,40.77237,-73.99005,casual
2301D7013CB8D7FA,classic_bike,2022-04-13T18:43:57Z,2022-04-13T18:59:28Z,E 97 St & Madison Ave,7393.09,E 97 St & Madison Ave,7393.09,40.787801,-73.953559,40.787801,-73.953559,member
F875495C471B1C96,classic_bike,2022-04-13T16:13:26Z,2022-04-13T16:32:29Z,W 37 St & 5 Ave,6398.06,E 74 St & 1 Ave,6953.08,40.75038009,-73.98338988,40.7689738,-73.95482273,member
FFBE5EB479CDC370,electric_bike,2022-04-27T13:29:45Z,2022-04-27T13:38:03Z,E 44 St & Lexington Ave,6464.09,8 Ave & W 38 St,6526.05,40.752643,-73.974996,40.75461,-73.99177,member
C321585CB9E1A1C3,classic_bike,2022-04-27T13:36:32Z,2022-04-27T13:42:08Z,University Pl & E 14 St,5905.14,E 19 St & 3 Ave,5938.01,40.734814,-73.992085,40.73624527,-73.98473765,member
9EDC2B835D8B17ED,classic_bike,2022-04-04T16:03:53Z,2022-04-04T16:05:59Z,W 12 St & Hudson St,5997.1,W 12 St & Hudson St,5997.1,40.73752993301071,-74.00558933615685,40.73752993301071,-74.00558933615685,member
310ECDE10EC1692E,electric_bike,2022-04-01T13:00:13Z,2022-04-01T13:04:38Z,W 21 St & 6 Ave,6140.05,W 13 St & 5 Ave,5947.04,40.74173969,-73.99415556,40.735445,-73.99431,member
68A9A9F3A74A0198,classic_bike,2022-04-25T22:55:09Z,2022-04-25T23:20:11Z,Thompson St & Bleecker St,5721.07,E 12 St & Ave C,5616.08,40.72840059450829,-73.99968780577183,40.727243,-73.976831,casual
448B6A3AF3A7AE37,classic_bike,2022-04-27T17:44:31Z,2022-04-27T17:51:29Z,Allen St & Rivington St,5414.06,E 11 St & Avenue B,5659.11,40.72019576,-73.98997825,40.72746420692392,-73.97950418293476,member
0E643C478FF0BF41,electric_bike,2022-04-11T03:47:46Z,2022-04-11T03:50:15Z,E 5 St & Ave A,5626.06,E 2 St & Avenue C,5476.03,40.72479007746337,-73.98430064320564,40.7208736,-73.98085795,member
67B76404A9F7FDB0,electric_bike,2022-04-15T22:06:31Z,2022-04-15T22:29:15Z,Bronx Shore Comfort Station,7618.01,Freeman St & Reverend James A Polite Ave,8080.01,40.80046,-73.92404,40.830529,-73.894717,member
A42F7BDEFA816B57,classic_bike,2022-04-18T13:17:00Z,2022-04-18T13:20:21Z,W 26 St & 8 Ave,6297.02,W 22 St & 10 Ave,6306.06,40.74734825,-73.99723551,40.74691959,-74.00451887,member
52D2DF3FAADB0377,classic_bike,2022-04-27T17:30:28Z,2022-04-27T17:43:20Z,McGuinness Blvd & Eagle St,5977.01,Driggs Ave & N 9 St,5411.08,40.73555,-73.95284,40.71816969454208,-73.95520135760307,member
F6B2754200E2C40B,classic_bike,2022-04-04T08:22:58Z,2022-04-04T08:38:25Z,W 30 St & 8 Ave,6373.07,11 Ave & W 59 St,7059.01,40.74965268472847,-73.9952078461647,40.77149671054441,-73.99046033620834,member
A68F42EA291C281F,classic_bike,2022-04-20T20:38:09Z,2022-04-20T21:04:18Z,W 50 St & 9 Ave,6854.05,E 4 St & 2 Ave,5593.04,40.763604677958625,-73.98917958140373,40.7262807,-73.98978041,member
D928AACCA151D9DB,classic_bike,2022-04-13T18:45:33Z,2022-04-13T18:46:52Z,Allen St & Rivington St,5414.06,Allen St & Rivington St,5414.06,40.72019576,-73.98997825,40.72019576,-73.98997825,member
BFB6A15547666273,classic_bike,2022-04-15T18:56:09Z,2022-04-15T19:04:44Z,W 31 St & 7 Ave,6331.01,W 30 St & 10 Ave,6459.07,40.749156,-73.9916,40.752694,-74.002353,casual
855F678F4B75C969,classic_bike,2022-04-04T18:25:41Z,2022-04-04T18:29:49Z,W 35 St & Dyer Ave,6569.08,W 43 St & 10 Ave,6756.01,40.754691750226016,-73.99740189313889,40.76009437,-73.99461843,member
296A26CA8D4F4C6F,electric_bike,2022-04-10T15:45:40Z,2022-04-10T15:57:49Z,Broadway & E 21 St,6098.1,Cleveland Pl & Spring St,5492.05,40.739888408589955,-73.98958593606949,40.722103786686034,-73.99724900722504,member
574D46BC6DE75252,classic_bike,2022-04-30T19:27:53Z,2022-04-30T19:31:22Z,Atlantic Ave & Furman St,4614.04,Columbia St & Kane St,4422.05,40.69165183,-73.9999786,40.68763155,-74.0016256,member
ED2F92B1883E3110,classic_bike,2022-04-28T15:03:06Z,2022-04-28T15:08:35Z,E 32 St & Park Ave,6280.12,W 37 St & 5 Ave,6398.06,40.7457121,-73.98194829,40.75038009,-73.98338988,member
8A6ED0F9F03F789D,classic_bike,2022-04-21T15:35:59Z,2022-04-21T16:41:51Z,W 49 St & 8 Ave,6747.06,10 Ave & W 14 St,6157.04,40.76227205,-73.98788205,40.741981599940225,-74.00831580162048,casual
477AF56698F83525,classic_bike,2022-04-13T17:28:25Z,2022-04-13T17:42:34Z,West St & Liberty St,5184.08,W 20 St & 7 Ave,6182.02,40.711444,-74.014847,40.74238787,-73.99726235,member
35A9CCACDB6CE9ED,electric_bike,2022-04-14T17:49:53Z,2022-04-14T17:53:34Z,Bleecker St & Crosby St,5679.08,Allen St & Stanton St,5484.09,40.72615604980408,-73.99510189890862,40.722055,-73.989111,casual
9CC18199DBAB8531,electric_bike,2022-04-03T20:38:15Z,2022-04-03T20:59:34Z,3 Ave & E 62 St,6762.04,Broadway & W 61 St,7014.12,40.76312584,-73.96526895,40.77003010255044,-73.9819684624672,casual
98F05A07AE8C165E,classic_bike,2022-04-11T15:51:08Z,2022-04-11T15:56:31Z,Hudson St & W 13 St,6115.06,Greenwich Ave & Charles St,5914.08,40.74005708567285,-74.0052741765976,40.735238,-74.000271,member
F14F8C15B295A326,classic_bike,2022-04-24T01:53:49Z,2022-04-24T02:03:16Z,Metropolitan Ave & Bedford Ave,5308.04,Scholes St & Manhattan Ave,5108.01,40.71534825,-73.96024116,40.70870368,-73.9448625,member
BE2BB91B3E073EC9,classic_bike,2022-04-02T10:39:25Z,2022-04-02T10:43:22Z,Crescent St & 35 Ave,6688.01,Crescent St & Broadway,6827.11,40.7596276,-73.9321455,40.7633589,-73.9286471,member
FF438D401D93A6F8,electric_bike,2022-04-03T07:47:34Z,2022-04-03T08:03:01Z,11 Ave & W 41 St,6726.01,E 68 St & Madison Ave,6932.15,40.76030096,-73.99884222,40.7691572,-73.96703464,member
8B76EF4AAFB8ABFD,classic_bike,2022-04-04T09:42:02Z,2022-04-04T09:49:19Z,Amsterdam Ave & W 152 St,8069.01,Convent Ave & W 135 St,7860.08,40.829523,-73.944279,40.818215,-73.950988,member
DE23D6889EF9C8B7,classic_bike,2022-04-22T15:24:59Z,2022-04-22T15:32:03Z,W 63 St & Broadway,7052.01,W 63 St & Broadway,7052.01,40.77163851,-73.98261428,40.77163851,-73.98261428,casual
0614EA9E7B73546E,electric_bike,2022-04-08T23:13:51Z,2022-04-08T23:16:44Z,Grand Concourse & East Mount Eden Ave,8265.09,Walton Ave & E 171 St,8249.1,40.84301,-73.91172,40.840683,-73.915073,member
4941D89183F222CA,classic_bike,2022-04-15T14:04:25Z,2022-04-15T14:14:14Z,E 14 St & Avenue B,5736.09,2 Ave & E 29 St,6122.09,40.72938685,-73.97772429,40.741723510974715,-73.97809267044067,casual
C2E621964EF54F4C,classic_bike,2022-04-09T01:19:16Z,2022-04-09T01:22:41Z,W 45 St & 8 Ave,6676.02,W 43 St & 10 Ave,6756.01,40.75929124,-73.98859651,40.76009437,-73.99461843,member
CE34D8C972906982,electric_bike,2022-04-08T01:52:32Z,2022-04-08T02:10:58Z,Carroll St & 5 Ave,4060.09,Verona Pl & Fulton St,4124.04,40.6751622,-73.9814832,40.6803560840434,-73.9476791024208,casual
92C5803797628990,classic_bike,2022-04-21T17:15:29Z,2022-04-21T17:18:05Z,W 15 St & 6 Ave,5989.02,W 18 St & 6 Ave,6064.08,40.738046142482766,-73.99642959237099,40.73971301,-73.99456405,member
EC35630346E8217A,electric_bike,2022-04-28T15:41:54Z,2022-04-28T15:46:41Z,9 Ave & W 22 St,6266.06,9 Ave & W 22 St,6266.06,40.7454973,-74.00197139,40.7454973,-74.00197139,member
111924C6727FD4EF,classic_bike,2022-04-14T08:22:10Z,2022-04-14T08:31:11Z,Bridge St & Water St,4968.03,Washington Park,4546.05,40.70296934155272,-73.98469090461731,40.6917823,-73.9737299,casual
3AA94B3AF99F5E21,classic_bike,2022-04-08T23:58:21Z,2022-04-09T00:04:57Z,W 27 St & 7 Ave,6247.06,W 31 St & 7 Ave,6331.01,40.746647,-73.993915,40.749156,-73.9916,casual
93CC30B1D2F0CE28,classic_bike,2022-04-19T20:09:13Z,2022-04-19T20:15:50Z,Newtown Ave & 23 St,7026.08,31 St & 23 Ave,7144.01,40.7713615,-73.9246145,40.7747878,-73.9125551,member
DA036D2C69AC2379,classic_bike,2022-04-28T09:20:25Z,2022-04-28T09:29:23Z,W 181 St & Riverside Dr,8381.04,Broadway & W 168 St,8226.06,40.85168,-73.94186,40.84089603193041,-73.93972098827362,member
E089B9D176A5E6EB,classic_bike,2022-04-07T11:56:57Z,2022-04-07T12:08:35Z,W 46 St & 11 Ave,6795.01,W 22 St & 8 Ave,6224.03,40.76341379,-73.99667444,40.74475148,-73.99915362,member
BAD20506508914AE,classic_bike,2022-04-15T07:10:38Z,2022-04-15T07:20:54Z,E 13 St & 2 Ave,5820.08,W 20 St & 8 Ave,6224.05,40.73153937464073,-73.9853024482727,40.74345335,-74.00004031,member
E6027A952885139D,classic_bike,2022-04-10T18:45:32Z,2022-04-10T18:47:42Z,E 11 St & Avenue B,5659.11,E 10 St & Avenue A,5659.05,40.72746420692392,-73.97950418293476,40.72740794,-73.98142006,member
C44E8DFC76451CD7,classic_bike,2022-04-30T11:33:29Z,2022-04-30T11:38:57Z,2 Ave & E 96 St,7338.02,1 Ave & E 78 St,7020.09,40.7839636,-73.9471673,40.77140426,-73.9535166,member
8FF793BD387B05AC,classic_bike,2022-04-06T21:18:45Z,2022-04-06T21:54:25Z,W 92 St & Broadway,7502.01,W 100 St & Broadway,7580.01,40.7921,-73.9739,40.7973721,-73.97041192,casual
F61F28D0C50A7464,electric_bike,2022-04-02T13:31:16Z,2022-04-02T13:41:05Z,5 Ave & E 103 St,7511.19,5 Ave & E 63 St,6904.06,40.7922553,-73.95249933,40.766368,-73.971518,member
E7AF75DF8C41FFDB,electric_bike,2022-04-30T16:27:19Z,2022-04-30T16:39:05Z,Central Park North & Adam Clayton Powell Blvd,7617.07,Central Park West & W 72 St,7141.07,40.799484,-73.955613,40.77579376683666,-73.9762057363987,casual
B28D6CE3ED69B123,classic_bike,2022-04-05T17:00:50Z,2022-04-05T17:08:32Z,W 21 St & 6 Ave,6140.05,8 Ave & W 33 St,6450.12,40.74173969,-73.99415556,40.751551,-73.993934,member
7F1F87C3ECB03544,electric_bike,2022-04-25T13:15:22Z,2022-04-25T13:22:59Z,Greenwich Ave & Charles St,5914.08,E 16 St & Irving Pl,5938.11,40.735238,-74.000271,40.735367055605394,-73.98797392845154,member
A0A5DAFB7B993A13,classic_bike,2022-04-17T14:53:45Z,2022-04-17T14:56:34Z,E 7 St & Ave C,5545.01,E 10 St & Avenue A,5659.05,40.72412944090093,-73.97901266813278,40.72740794,-73.98142006,member
B41CD9AE8879D020,electric_bike,2022-04-12T17:23:16Z,2022-04-12T17:32:09Z,8 Ave & W 33 St,6450.12,W 53 St & 10 Ave,6890.01,40.751551,-73.993934,40.76669671,-73.99061728,member
69D6BD21E8F01929,electric_bike,2022-04-05T19:58:15Z,2022-04-05T20:07:31Z,Kenmare St & Elizabeth St,5453.06,W 4 St & 7 Ave S,5880.02,40.72054,-73.9949,40.73401143,-74.00293877,casual
0F6F6FC0497BB34F,classic_bike,2022-04-14T15:32:36Z,2022-04-14T15:39:50Z,Queens Plaza North & Crescent St,6429.01,36 Ave & 10 St,6737.03,40.75110165,-73.94073717,40.7614376,-73.9411265,member
4C6FC9473E5D4903,classic_bike,2022-04-08T10:06:13Z,2022-04-08T10:32:16Z,Adam Clayton Powell Blvd & W 151 St,8009.05,Lenox Ave & W 115 St,7627.1,40.825289,-73.936232,40.8011939,-73.9500739,member
4A6D60DAB89B251C,classic_bike,2022-04-24T18:19:49Z,2022-04-24T18:26:01Z,E 2 St & Avenue A,5553.1,1 Ave & E 18 St,5854.09,40.72307749068673,-73.98583620786667,40.733812191966315,-73.98054420948029,member
DAAD613C83D4F54F,electric_bike,2022-04-14T11:29:36Z,2022-04-14T11:39:09Z,Frederick Douglass Blvd & W 145 St,7954.12,Frederick Douglass Blvd & W 117 St,7688.12,40.823061,-73.941928,40.805159,-73.954692,member
244C58B2F72837F1,classic_bike,2022-04-26T17:49:53Z,2022-04-26T18:03:25Z,Broadway & W 53 St,6779.05,6 Ave & W 33 St,6364.07,40.76344058,-73.98268129,40.74901271,-73.98848395,member
524BF0FBB80802B9,classic_bike,2022-04-13T18:44:12Z,2022-04-13T18:55:16Z,Fulton St & Broadway,5175.08,Duane St & Hudson St,5359.12,40.711066,-74.009447,40.71703,-74.00925,member
3E45CDC81984449D,classic_bike,2022-04-23T23:39:00Z,2022-04-23T23:43:03Z,E 2 St & Avenue C,5476.03,E 11 St & Avenue B,5659.11,40.7208736,-73.98085795,40.72746420692392,-73.97950418293476,member
A437403B302760F7,classic_bike,2022-04-05T21:48:59Z,2022-04-05T22:07:49Z,E 51 St & 1 Ave,6532.06,W 29 St & 9 Ave,6416.06,40.75455731,-73.96592976,40.7500727,-73.99839279,member
B34A8B449A5E12E2,classic_bike,2022-04-16T11:43:14Z,2022-04-16T12:02:15Z,Central Park West & W 76 St,7253.04,5 Ave & E 87 St,7323.09,40.77896784,-73.97374737,40.78232260730881,-73.95987510681152,casual
94435F3A76777B0E,classic_bike,2022-04-30T18:49:49Z,2022-04-30T18:56:26Z,W 44 St & 11 Ave,6756.05,8 Ave & W 49 St,6747.07,40.762009,-73.996975,40.76171227910671,-73.98655101656914,member
5F1FED52291D84B5,classic_bike,2022-04-23T14:17:55Z,2022-04-23T14:34:16Z,Central Park W & W 91 St,7453.01,Columbus Ave & W 72 St,7175.05,40.78866499127883,-73.96680057048798,40.7770575,-73.97898475,member
463B65915A73D82F,classic_bike,2022-04-07T11:15:53Z,2022-04-07T11:29:00Z,Washington Pl & Broadway,5755.01,E 25 St & 1 Ave,6004.07,40.72903917,-73.99404649,40.7381765,-73.97738662,casual
76EA3463FC311DCE,classic_bike,2022-04-27T23:19:04Z,2022-04-27T23:23:26Z,Bedford Park Blvd & Paul Ave,8752.01,Goulden Ave & W 197 St,8707.01,40.87444,-73.89186,40.87156,-73.89714,casual
6F4C55735D190B4C,electric_bike,2022-04-10T16:56:00Z,2022-04-10T17:08:45Z,Water St &  Fletcher St,5024.1,Henry St & Middagh St,4861.05,40.706410755236135,-74.00559738278389,40.7003,-73.991581,casual
153240B872C820ED,classic_bike,2022-04-18T18:20:14Z,2022-04-18T19:03:52Z,W 34 St &\tHudson Blvd E,6535.04,10 Ave & W 14 St,6157.04,40.75516719072139,-74.00059908628464,40.741981599940225,-74.00831580162048,member
C3F292A3FC02865D,classic_bike,2022-04-12T19:19:18Z,2022-04-12T19:26:51Z,Steinway St & 28 Ave,6915.02,31 St & Broadway,6789.04,40.7656251,-73.9136695,40.761584,-73.925921,member
B5FCC69AB39B56F6,classic_bike,2022-04-28T08:37:14Z,2022-04-28T08:56:09Z,Bedford Ave & Bergen St,4066.15,State St & Smith St,4522.07,40.676368,-73.952918,40.68917,-73.9886,member
8EF1667BABF31D2D,classic_bike,2022-04-26T18:02:01Z,2022-04-26T18:02:10Z,West St & Liberty St,5184.08,West St & Liberty St,5184.08,40.711444,-74.014847,40.711444,-74.014847,member
5F2A47086D3C0E5A,classic_bike,2022-04-24T11:06:07Z,2022-04-24T11:13:30Z,E 59 St & Madison Ave,6801.01,1 Ave & E 62 St,6753.08,40.76350532,-73.97109243,40.7612274,-73.96094022,member
AE6B6C76CEB69853,electric_bike,2022-04-16T21:36:37Z,2022-04-16T21:57:10Z,Marcus Garvey Blvd & Macon St,4278.03,Metropolitan Ave & Meeker Ave,5300.05,40.682601,-73.938037,40.71413311,-73.95234386,casual
D6558B6ABAE4D764,classic_bike,2022-04-28T09:43:28Z,2022-04-28T09:57:33Z,W 4 St & 7 Ave S,5880.02,Greenwich Ave & Charles St,5914.08,40.73401143,-74.00293877,40.735238,-74.000271,member
C1B72EAB6B6FDE92,classic_bike,2022-04-30T23:17:45Z,2022-04-30T23:18:51Z,Broadway & W 53 St,6779.05,Broadway & W 51 St,6779.04,40.76344058,-73.98268129,40.76228826,-73.98336183,member
59FC380C2DDC00E4,electric_bike,2022-04-27T16:10:06Z,2022-04-27T16:19:48Z,Washington Pl & 6 Ave,5838.09,Spring St & Hudson St,5653.12,40.73224119,-74.00026394,40.72583996792375,-74.0076532959938,member
22148895DDBA57C9,classic_bike,2022-04-21T12:03:15Z,2022-04-21T12:11:00Z,Madison Ave & E 26 St,6131.12,E 31 St & 3 Ave,6239.08,40.742684734875695,-73.98671329021454,40.74394314,-73.97966069,casual
3DA5DE220273CBBD,electric_bike,2022-04-16T14:02:24Z,2022-04-16T14:09:25Z,N 6 St & Bedford Ave,5379.1,Milton St & Franklin St,5752.07,40.71745169,-73.95850939,40.72906,-73.95779,member
01243569876BC5B9,classic_bike,2022-04-24T12:39:52Z,2022-04-24T12:52:21Z,6 Ave & W 34 St,6364.1,W 15 St & 7 Ave,6030.06,40.74964,-73.98805,40.73935542,-73.99931783,casual
DBC7880AB7AE967B,classic_bike,2022-04-20T11:59:14Z,2022-04-20T12:06:02Z,24 St & 41 Ave,6505.09,45 Rd & 11 St,6319.01,40.752474,-73.939991,40.74708586,-73.94977234,member
24F9C1A418D4CC42,electric_bike,2022-04-20T08:11:04Z,2022-04-20T08:21:58Z,E 7 St & Avenue A,5626.07,W 20 St & 7 Ave,6182.02,40.72621788,-73.98379855,40.74238787,-73.99726235,casual
1B7956C703B02881,classic_bike,2022-04-15T10:58:10Z,2022-04-15T11:04:13Z,W 106 St & Amsterdam Ave,7634.01,Frederick Douglass Blvd & W 117 St,7688.12,40.8008363,-73.9664492472,40.805159,-73.954692,member
4CDDE1AC8FB02663,electric_bike,2022-04-21T10:39:32Z,2022-04-21T11:02:55Z,Huron St & Franklin St,5869.04,35 St & Broadway,6750.16,40.73266,-73.95826,40.760339,-73.9222427,member
5E4CFBC874E2542F,electric_bike,2022-04-19T12:00:51Z,2022-04-19T12:06:51Z,E 25 St & 1 Ave,6004.07,E 13 St & 2 Ave,5820.08,40.7381765,-73.97738662,40.73153937464073,-73.9853024482727,member
D6407445985744C5,classic_bike,2022-04-08T14:59:04Z,2022-04-08T15:13:05Z,Underhill Ave & Pacific St,4231.04,Lefferts Pl & Franklin Ave,4222.02,40.6804836,-73.9646795,40.680342423,-73.9557689392,member
3116BCEF0DD415F1,classic_bike,2022-04-20T19:31:50Z,2022-04-20T19:39:30Z,St Johns Pl & Washington Ave,4001.09,Bergen St & Flatbush Ave,4281.08,40.6737236,-73.9631611,40.680944723477296,-73.97567331790923,member
7C8B5DD8530AE81C,classic_bike,2022-04-24T09:52:19Z,2022-04-24T10:04:47Z,Prospect Park West & 8 St,3722.04,Windsor Pl & 8 Ave,3620.02,40.66514681533792,-73.97637605667114,40.660906,-73.983074,casual
6203192691A517C7,electric_bike,2022-04-28T23:26:28Z,2022-04-28T23:36:09Z,Carlton Ave & Dean St,4199.12,10 St & 7 Ave,3762.08,40.6809741,-73.9710097,40.6662078,-73.98199886,member
CB7727691C0BD5CC,electric_bike,2022-04-04T10:39:16Z,2022-04-04T10:46:58Z,Schermerhorn St & Bond St,4479.08,Lafayette Ave & St James Pl,4494.04,40.688417427540834,-73.98451656103134,40.68851534,-73.9647628,member
F121BC64F7C5BD36,classic_bike,2022-04-27T16:31:46Z,2022-04-27T16:34:12Z,5 Ave & 41 St,3306.03,36 St & 4 Ave,3420.01,40.649983,-74.005144,40.654144,-74.00422,member
C1F5893B0FDB7463,classic_bike,2022-04-28T06:21:06Z,2022-04-28T06:27:48Z,Suffolk St & Stanton St,5445.02,Ave D & E 8 St,5506.1,40.72066442,-73.98517977,40.72368361,-73.97574813,member
843B03EBEE2A8FD8,classic_bike,2022-04-06T16:23:09Z,2022-04-06T16:27:48Z,Carroll St & Smith St,4225.14,Columbia St & Degraw St,4422.04,40.680611,-73.99475825,40.6859296,-74.00242364,member
68523F1AE0A17109,electric_bike,2022-04-20T18:35:10Z,2022-04-20T18:52:19Z,Roosevelt Island Tramway,6599.01,Roosevelt Island Tramway,6599.01,40.757284,-73.9536,40.757284,-73.9536,member
056D061C482BC7B9,electric_bike,2022-04-29T16:03:27Z,2022-04-29T16:09:35Z,2 Ave & E 72 St,6925.09,E 85 St & 3 Ave,7212.05,40.7687620293096,-73.95840793848038,40.77801203,-73.95407149,casual
DF347B85526BFBA6,electric_bike,2022-04-25T16:11:46Z,2022-04-25T16:30:11Z,W 90 St & Amsterdam Ave,7432.04,River Ave & E 151 St,7967.04,40.79017948095081,-73.97288918495178,40.822217,-73.928939,member
A83BE7E35CC32CF2,classic_bike,2022-04-28T10:00:26Z,2022-04-28T10:05:50Z,Ave A & E 14 St,5779.11,E 15 St & 3 Ave,5863.07,40.73031071000895,-73.98047178983688,40.734232,-73.986923,member
B18CCF55E91C033F,classic_bike,2022-04-23T18:09:17Z,2022-04-23T18:29:34Z,W 43 St & 10 Ave,6756.01,Pier 40 - Hudson River Park,5696.03,40.76009437,-73.99461843,40.7277140777778,-74.01129573583603,member
581B74375303AB90,classic_bike,2022-04-27T17:47:49Z,2022-04-27T18:26:53Z,E 53 St & Madison Ave,6659.03,Pike St & Monroe St,5159.04,40.7597108,-73.97402311,40.71173107,-73.99193043,member
AE53ECD0577AECB9,classic_bike,2022-04-27T11:02:34Z,2022-04-27T11:08:35Z,Hanson Pl & Ashland Pl,4395.07,Willoughby St & Fleet St,4628.05,40.68506807308177,-73.97790759801863,40.69196566,-73.9813018,member
A4BF2F9A4B12266F,electric_bike,2022-04-29T17:54:27Z,2022-04-29T17:58:25Z,W 4 St & 7 Ave S,5880.02,Washington St & Gansevoort St,6039.06,40.73401143,-74.00293877,40.739323,-74.008119,member
E02E8B84F9C8734D,electric_bike,2022-04-26T16:59:48Z,2022-04-26T17:12:46Z,Stanton St & Mangin St,5326.06,Pearl St & Peck Slip,5096.11,40.71782143,-73.97628939,40.708485,-74.002751,casual
4F2E1A620AE04DE8,classic_bike,2022-04-15T16:14:42Z,2022-04-15T16:24:34Z,5 Ave & E 93 St,7372.1,E 118 St & Park Ave,7625.18,40.7857851,-73.957481,40.8005385,-73.9419949,member
9FEF3B6D1CCBFA54,classic_bike,2022-04-13T11:45:26Z,2022-04-13T12:14:52Z,Broadway & W 58 St,6948.1,E 72 St & Park Ave,6998.08,40.76695317,-73.98169333,40.77118287540658,-73.96409422159195,casual
8141A592C9368FCB,classic_bike,2022-04-17T21:17:51Z,2022-04-17T21:25:15Z,E 2 St & 2 Ave,5593.02,University Pl & E 14 St,5905.14,40.72502876,-73.99069656,40.734814,-73.992085,casual
AB559015BAD8532E,classic_bike,2022-04-21T20:40:40Z,2022-04-21T20:43:54Z,Amsterdam Ave & W 82 St,7360.1,W 82 St & Central Park West,7304.08,40.78524672,-73.97667321,40.78275,-73.97137,member
3A3D78AC4D05AF1C,electric_bike,2022-04-04T17:20:06Z,2022-04-04T17:36:18Z,Meserole Ave & Manhattan Ave,5666.04,E 1 St & 1 Ave,5593.01,40.72708584,-73.95299117,40.72335597960796,-73.98864984512329,member
FA743DA36288B287,electric_bike,2022-04-11T13:37:21Z,2022-04-11T13:48:16Z,Broadway & E 14 St,5905.12,6 Ave & Broome St,5610.09,40.73454567,-73.99074142,40.72431,-74.00473,casual
0EC5A62148FD97D0,classic_bike,2022-04-21T10:54:30Z,2022-04-21T11:09:37Z,5 Ave & E 72 St,7100.07,Central Park S & 6 Ave,6876.04,40.77282817,-73.96685276,40.76590936,-73.97634151,casual
53BDAC03F13DBDD9,classic_bike,2022-04-18T13:22:50Z,2022-04-18T13:35:20Z,Menahan St & Onderdonk Ave,5034.03,Devoe St & Morgan Ave,5282.02,40.70553,-73.9096,40.713811,-73.93515,member
01C39D4F8C7A2CFB,classic_bike,2022-04-26T17:38:41Z,2022-04-26T17:43:46Z,Barrow St & Hudson St,5805.05,W Broadway & Spring St,5569.06,40.73172428,-74.00674436,40.72494672359416,-74.00165855884552,member
4116E9821825F530,classic_bike,2022-04-22T10:48:02Z,2022-04-22T10:50:59Z,LaGuardia Pl & W 3 St,5721.14,MacDougal St & Prince St,5687.04,40.72917025,-73.99810231,40.72710258,-74.00297088,member
2B04E8191FB5426C,electric_bike,2022-04-24T16:57:31Z,2022-04-24T17:04:12Z,W 22 St & 8 Ave,6224.03,W 26 St & 8 Ave,6297.02,40.74475148,-73.99915362,40.74734825,-73.99723551,casual
D4450B55082E6EF5,electric_bike,2022-04-19T18:23:07Z,2022-04-19T18:27:08Z,Lenox Ave & W 144 St,7910.01,River Ave & E 151 St,7967.04,40.819783,-73.936521,40.822217,-73.928939,member
47CCB319EF4E7A7F,classic_bike,2022-04-11T19:11:54Z,2022-04-11T19:34:07Z,Washington Pl & 6 Ave,5838.09,E 72 St & Park Ave,6998.08,40.73224119,-74.00026394,40.77118287540658,-73.96409422159195,member
FC3CB595D134DB3B,classic_bike,2022-04-12T20:29:37Z,2022-04-12T20:39:08Z,George St & Wilson Ave,4906.07,Lewis Ave & Madison St,4425.02,40.702997,-73.92997,40.686312,-73.935775,member
F8205D7B55C82ED1,electric_bike,2022-04-22T13:59:11Z,2022-04-22T14:04:59Z,W 50 St & 10 Ave,6890.06,W 64 St & Thelonious Monk Circle,7123.04,40.764734200065185,-73.99194359779358,40.77515953434235,-73.98918695747852,casual
E1B59DCB21F06730,classic_bike,2022-04-23T19:01:26Z,2022-04-23T19:30:21Z,Perry St & Bleecker St,5922.07,W 82 St & Central Park West,7304.08,40.73535398,-74.00483091,40.78275,-73.97137,casual
0A7026C76095C869,classic_bike,2022-04-23T08:10:42Z,2022-04-23T08:17:53Z,Front St & Gold St,4927.04,Pierrepont St & Monroe Pl,4718.08,40.70224,-73.982578,40.69535693320225,-73.99344027042389,member
909A52C45D0D46CA,classic_bike,2022-04-11T16:47:04Z,2022-04-11T17:01:09Z,Kent Ave & N 7 St,5489.03,Huron St & Franklin St,5869.04,40.72036775298455,-73.96165072917938,40.73266,-73.95826,member
9C4BE4537E15C6E5,electric_bike,2022-04-23T14:29:35Z,2022-04-23T14:35:24Z,Pike St & E Broadway,5270.05,Barclay St & Church St,5216.04,40.71406667,-73.99293911,40.71291224,-74.01020234,member
6406A5D14998151C,classic_bike,2022-04-18T12:47:02Z,2022-04-18T13:34:07Z,Carroll St & Columbia St,4348.07,Carroll St & Columbia St,4348.07,40.6830456,-74.00348559,40.6830456,-74.00348559,casual
0643822D2823F2C3,classic_bike,2022-04-04T08:38:24Z,2022-04-04T08:42:16Z,E 11 St & 3 Ave,5788.16,University Pl & E 14 St,5905.14,40.73127,-73.98849,40.734814,-73.992085,member
D73527FC8D57FDA4,classic_bike,2022-04-30T19:56:35Z,2022-04-30T20:26:36Z,E 2 St & Avenue C,5476.03,Grand St & Havemeyer St,5267.08,40.7208736,-73.98085795,40.71286844,-73.95698119,casual
BDD84164AF238FF3,classic_bike,2022-04-02T16:23:31Z,2022-04-02T16:26:19Z,Howard St & Lafayette St,5422.04,Grand St & Elizabeth St,5382.06,40.71910537,-73.99973337,40.718822,-73.99596,member
73D715AD539DEB80,classic_bike,2022-04-29T19:15:19Z,2022-04-29T19:28:22Z,1 Ave & E 68 St,6822.09,E 92 St & Park Ave,7344.06,40.76500525,-73.95818491,40.78385,-73.95416,member
6CE6A5D4F52B681D,electric_bike,2022-04-06T06:49:17Z,2022-04-06T06:56:21Z,Avenue D & E 3 St,5436.09,Forsyth St\t& Grand St,5382.07,40.72082834,-73.97793172,40.71779817737835,-73.99316132068634,member
60589F55F9282419,classic_bike,2022-04-06T15:04:15Z,2022-04-06T15:18:18Z,W 63 St & Broadway,7052.01,8 Ave & W 33 St,6450.12,40.77163851,-73.98261428,40.751551,-73.993934,member
492A6DD1672A1113,classic_bike,2022-04-26T09:46:22Z,2022-04-26T09:52:26Z,Lenox Ave & W 111 St,7602.05,Morningside Ave & W 123 St,7741.01,40.7987859,-73.9523,40.81,-73.9551508,member
B0D7E944ACDBBB73,classic_bike,2022-04-30T11:31:52Z,2022-04-30T11:32:11Z,Sullivan St & Washington Sq,5721.01,Sullivan St & Washington Sq,5721.01,40.73047747,-73.99906065,40.73047747,-73.99906065,casual
4FA0F26AEA5E2415,classic_bike,2022-04-27T19:52:10Z,2022-04-27T19:57:36Z,W 41 St & 8 Ave,6602.03,W 44 St & 5 Ave,6551.02,40.75640548,-73.9900262,40.75500254,-73.98014437,member
37BA588491186B97,classic_bike,2022-04-05T11:34:31Z,2022-04-05T11:44:45Z,Carmine St & 6 Ave,5763.03,E 2 St & Avenue A,5553.1,40.73038599,-74.00214988,40.72307749068673,-73.98583620786667,member
8AD5FE12DD5D561D,electric_bike,2022-04-17T13:21:08Z,2022-04-17T13:31:20Z,Amsterdam Ave & W 73 St,7260.09,W 54 St & 11 Ave,6955.05,40.77966809007312,-73.98093044757842,40.768333,-73.992573,member
53760DB5B8BA921E,classic_bike,2022-04-08T08:48:38Z,2022-04-08T09:05:17Z,Carmine St & 6 Ave,5763.03,Madison Av & E 51 St,6659.09,40.73038599,-74.00214988,40.75863,-73.97513,member
F960AA4815F5A946,electric_bike,2022-04-15T14:33:41Z,2022-04-15T14:50:18Z,E 41 St & Madison Ave (SW corner),6474.12,Forsyth St & Broome St,5453.05,40.752165280621966,-73.97992193698882,40.71893904,-73.99266288,member
0D13B4EA2142BA3F,classic_bike,2022-04-28T06:21:04Z,2022-04-28T06:27:14Z,W 42 St & Dyer Ave,6644.07,W 47 St & 6 Ave,6667.04,40.75898481399634,-73.99379968643188,40.758397,-73.98255,member
5D7948CAE4E66FED,classic_bike,2022-04-02T18:47:13Z,2022-04-02T19:42:52Z,W 15 St & 10 Ave,6115.09,Riverside Dr & W 82 St,7388.1,40.742753828659026,-74.00747358798981,40.78720869,-73.98128127,member
331D920DBE6A0199,electric_bike,2022-04-04T20:36:35Z,2022-04-04T20:46:25Z,W 30 St & 10 Ave,6459.07,W 50 St & 10 Ave,6890.06,40.752694,-74.002353,40.764734200065185,-73.99194359779358,member
B8B14674ABA0E873,classic_bike,2022-04-29T17:02:47Z,2022-04-29T17:11:02Z,Vesey Pl & River Terrace,5297.02,Pier 40 - Hudson River Park,5696.03,40.7153379,-74.01658354,40.7277140777778,-74.01129573583603,member
5FC16D618783B9A9,electric_bike,2022-04-06T16:51:03Z,2022-04-06T16:59:25Z,7 Ave & Central Park South,6912.01,5 Ave & E 78 St,7161.08,40.7667405590595,-73.9790689945221,40.77632142182271,-73.96427392959595,casual
8845A225FFF4B279,electric_bike,2022-04-07T10:38:50Z,2022-04-07T10:58:14Z,St Johns Pl & Washington Ave,4001.09,Sigourney St & Columbia St,3940.04,40.6737236,-73.9631611,40.67267243410948,-74.0087952464819,member
B81288A06F59B1BE,classic_bike,2022-04-24T10:25:56Z,2022-04-24T10:38:55Z,Prospect Park SW & Vanderbilt St,3457.03,Grand Army Plaza & Plaza St West,4010.15,40.65482,-73.973217,40.6729679,-73.97087984,casual
D36EF619C487CB2E,electric_bike,2022-04-02T13:58:22Z,2022-04-02T14:34:11Z,2 Ave & 32 St,3532.02,Court St & State St,4488.08,40.659176,-74.006584,40.6902375,-73.99203074,member
56B7AE62D6FC9400,electric_bike,2022-04-22T08:04:44Z,2022-04-22T08:23:08Z,E 16 St & Irving Pl,5938.11,E 63 St & 3 Ave,6830.02,40.735367055605394,-73.98797392845154,40.763954,-73.9646,member
87E1B2AD3DD393A3,classic_bike,2022-04-15T16:33:42Z,2022-04-15T16:54:00Z,Central Park W & W 97 St,7538.18,E 85 St & York Ave,7146.04,40.79249519495111,-73.96417066463071,40.77536905,-73.94803392,member
86868F7F6A47E903,classic_bike,2022-04-10T10:44:57Z,2022-04-10T10:59:57Z,W 52 St & 11 Ave,6926.01,Washington St & Gansevoort St,6039.06,40.76727216,-73.99392888,40.739323,-74.008119,member
FB040D110553C4C2,electric_bike,2022-04-08T10:47:28Z,2022-04-08T11:21:05Z,Broadway & E 21 St,6098.1,St. Nicholas Ave & W 126 St,7756.1,40.739888408589955,-73.98958593606949,40.8114323,-73.9518776,member
4B70D2FA972E1C48,classic_bike,2022-04-04T16:56:17Z,2022-04-04T16:58:44Z,Broadway & E 14 St,5905.12,Lafayette St & E 8 St,5788.13,40.73454567,-73.99074142,40.73020660529954,-73.99102628231049,member
9311174BA82F2DE0,electric_bike,2022-04-07T18:04:12Z,2022-04-07T18:04:47Z,W 22 St & 8 Ave,6224.03,W 22 St & 8 Ave,6224.03,40.74475148,-73.99915362,40.74475148,-73.99915362,member
F57E3253182CAA03,electric_bike,2022-04-18T08:30:43Z,2022-04-18T08:43:20Z,E 58 St & 1 Ave (NW Corner),6723.1,Crescent St & 34 Ave,6759.15,40.759125,-73.962658,40.76108,-73.930562,member
61195630DF8863AF,classic_bike,2022-04-01T12:21:54Z,2022-04-01T14:08:20Z,W 11 St & 6 Ave,5914.03,Vesey Pl & River Terrace,5297.02,40.73532427,-73.99800419,40.7153379,-74.01658354,casual
E38DDCEBE21DAECF,electric_bike,2022-04-20T15:59:17Z,2022-04-20T16:20:43Z,West Thames St,5114.06,10 Ave & W 14 St,6157.04,40.70834698,-74.01713445,40.741981599940225,-74.00831580162048,casual
4B63B308DE052300,electric_bike,2022-04-28T17:24:43Z,2022-04-28T17:41:58Z,Humboldt St & Varet St,4956.02,India St Pier,5794.05,40.7031724,-73.940636,40.731734785883454,-73.9612390102593,member
81D1C5215CAA0EC4,classic_bike,2022-04-09T17:22:13Z,2022-04-09T17:29:00Z,5 St & 6 Ave,3874.01,6 Ave & 21 St,3628.11,40.6704836,-73.98208968,40.66016,-73.990974,member
A775D1055B39AEE9,classic_bike,2022-04-12T08:40:26Z,2022-04-12T09:00:22Z,Carroll St & Smith St,4225.14,Centre St & Chambers St,5207.01,40.680611,-73.99475825,40.71273266,-74.0046073,member
60624D250E297526,electric_bike,2022-04-20T19:02:16Z,2022-04-20T19:07:52Z,Broadway & E 14 St,5905.12,Ave A & E 14 St,5779.11,40.73454567,-73.99074142,40.73031071000895,-73.98047178983688,member
611A7584C486EB3A,electric_bike,2022-04-19T18:52:06Z,2022-04-19T18:58:42Z,Perry St & Bleecker St,5922.07,MacDougal St & Prince St,5687.04,40.73535398,-74.00483091,40.72710258,-74.00297088,member
804A7A88EE4A398E,classic_bike,2022-04-25T15:57:54Z,2022-04-25T16:15:04Z,Henry St & Grand St,5294.04,Metropolitan Ave & Meeker Ave,5300.05,40.714211,-73.981095,40.71413311,-73.95234386,member
9BE9EEC6D9A67632,electric_bike,2022-04-02T12:05:37Z,2022-04-02T12:19:43Z,Amsterdam Ave & W 73 St,7260.09,2 Ave & E 72 St,6925.09,40.77966809007312,-73.98093044757842,40.7687620293096,-73.95840793848038,casual
E798A4588D88647A,electric_bike,2022-04-28T13:50:14Z,2022-04-28T13:57:37Z,E 6 St & Avenue D,5506.14,Forsyth St & Broome St,5453.05,40.72228087,-73.97668709,40.71893904,-73.99266288,member
CB5CFFD58FE6CA1B,electric_bike,2022-04-25T14:14:55Z,2022-04-25T14:19:51Z,DeKalb Ave & Vanderbilt Ave,4461.04,S Portland Ave & Hanson Pl,4354.05,40.68940747,-73.96885458,40.68539567,-73.97431458,member
14484EDE0746927F,classic_bike,2022-04-02T13:05:16Z,2022-04-02T13:16:36Z,Murray St & Greenwich St,5288.12,Pearl St & Hanover Square,4993.02,40.71485150526251,-74.01122331619263,40.7047177,-74.00926027,casual
C74E5A3C529B6B46,classic_bike,2022-04-11T14:30:37Z,2022-04-11T14:40:37Z,Orchard St & Grand St,5343.11,E 9 St & Avenue C,5616.01,40.717318403855785,-73.99067759513855,40.72521311,-73.97768752,member
ADD9D4589E1058A4,classic_bike,2022-04-16T18:34:04Z,2022-04-16T18:53:32Z,11 Ave & W 41 St,6726.01,Lafayette St & E 8 St,5788.13,40.76030096,-73.99884222,40.73020660529954,-73.99102628231049,member
97517FE7D18A43D6,classic_bike,2022-04-10T14:48:50Z,2022-04-10T15:40:24Z,Concord St & Bridge St,4781.03,South St & Pike St,5159.07,40.69766564,-73.98476437,40.70991806921533,-73.99161100387573,member
0E95F61510A04105,classic_bike,2022-04-15T16:41:09Z,2022-04-15T16:45:02Z,W 47 St & 10 Ave,6824.07,8 Ave & W 49 St,6747.07,40.76269882,-73.99301222,40.76171227910671,-73.98655101656914,member
A772F01679A6731D,classic_bike,2022-04-24T12:30:49Z,2022-04-24T12:36:43Z,E 80 St & 2 Ave,7121.02,East End Ave & E 86 St,7113.08,40.77391390238118,-73.9543953537941,40.77518615,-73.94446054,casual
CD440EB5FA226AAB,classic_bike,2022-04-02T15:54:08Z,2022-04-02T16:20:09Z,Kosciuszko St & Nostrand Ave,4519.04,India St & Manhattan Ave,5826.02,40.69072549,-73.95133465,40.73232194,-73.9550858,member
458E9E654A603A74,classic_bike,2022-04-09T13:55:49Z,2022-04-09T14:10:22Z,E 55 St & 2 Ave,6650.07,W 42 St & 6 Ave,6517.08,40.75797322,-73.96603308,40.75492,-73.98455,member
63EBFEBD371AAEF2,classic_bike,2022-04-13T13:58:56Z,2022-04-13T14:16:58Z,Kent Ave & Division Ave,5021.05,Bridge St & Water St,4968.03,40.706563674670925,-73.9683187007904,40.70296934155272,-73.98469090461731,casual
16906E0356D6D743,classic_bike,2022-04-13T19:30:43Z,2022-04-13T19:49:40Z,Grand St & Greene St,5500.02,E 31 St & 3 Ave,6239.08,40.72170005235607,-74.00238141417502,40.74394314,-73.97966069,member
3277D31EDE18975D,electric_bike,2022-04-12T08:24:40Z,2022-04-12T08:40:53Z,36 Ave & 31 St,6572.08,1 Ave & E 44 St,6379.03,40.75651272984955,-73.92957486212252,40.75001986,-73.96905301,member
1F473EDE727DDE44,electric_bike,2022-04-06T07:35:01Z,2022-04-06T07:40:06Z,E 78 St & 2 Ave,7057.07,E 82 St & East End Ave,7049.04,40.7727966,-73.95577801,40.7724607,-73.9468208,member
B9367890D2B32CB5,classic_bike,2022-04-21T08:32:20Z,2022-04-21T08:38:30Z,Market St & Henry St,5270.09,Stanton St & Chrystie St,5523.02,40.71310702305908,-73.99446353316307,40.72229346,-73.99147535,member
880CFC8352A3D966,classic_bike,2022-04-02T13:56:06Z,2022-04-02T14:09:15Z,Brook Ave & E 157 St,7935.07,Courtlandt Ave & E 149 St,7840.05,40.820713,-73.911759,40.816402,-73.919549,casual
20E8FF8BDB17FEC6,classic_bike,2022-04-24T07:18:48Z,2022-04-24T07:34:08Z,W 50 St & 10 Ave,6890.06,E 66 St & Madison Ave,6969.08,40.764734200065185,-73.99194359779358,40.76800889305947,-73.96845281124115,member
B265645630CDA194,classic_bike,2022-04-17T09:25:02Z,2022-04-17T09:30:15Z,Centre St & Chambers St,5207.01,Catherine St & Monroe St,5128.04,40.71273266,-74.0046073,40.71117444,-73.99682619,member
35A386DC3F7DC0CD,electric_bike,2022-04-10T20:27:07Z,2022-04-10T21:22:05Z,Jay St & Tech Pl,4710.06,Knickerbocker Ave & Halsey St,4623.02,40.695065,-73.987167,40.693,-73.90824,member
ABD7825B23EE710A,electric_bike,2022-04-09T21:26:35Z,2022-04-09T21:35:05Z,E Tremont Ave & E 176 St,8356.02,E 170 St & Webster Ave,8156.03,40.847798,-73.901883,40.83617913677475,-73.90730146322765,member
3A8769D0ADCE0AC7,classic_bike,2022-04-12T16:48:05Z,2022-04-12T17:02:56Z,E 56 St & 3 Ave,6691.11,8 Ave & W 31 St,6450.05,40.75934501,-73.96759673,40.7505853470215,-73.9946848154068,member
139A6D8BBF03D293,classic_bike,2022-04-20T14:30:56Z,2022-04-20T14:42:30Z,Lafayette St & E 8 St,5788.13,E 25 St & 1 Ave,6004.07,40.73020660529954,-73.99102628231049,40.7381765,-73.97738662,member
86165DC370EC81A8,classic_bike,2022-04-14T18:37:59Z,2022-04-14T18:41:12Z,31 St & Astoria Blvd,6989.07,Newtown Ave & 23 St,7026.08,40.7699176,-73.9184057,40.7713615,-73.9246145,member
320B26FC1C4E7E39,electric_bike,2022-04-08T09:15:08Z,2022-04-08T09:15:45Z,E 106 St & Lexington Ave,7504.18,E 106 St & Lexington Ave,7504.18,40.791976,-73.945993,40.791976,-73.945993,member
08527CC6488CB220,electric_bike,2022-04-19T08:22:39Z,2022-04-19T08:23:24Z,E 15 St & 3 Ave,5863.07,E 15 St & 3 Ave,5863.07,40.734232,-73.986923,40.734232,-73.986923,member
C56E4860F979F269,classic_bike,2022-04-24T05:13:05Z,2022-04-24T05:20:29Z,Lexington Ave & E 29 St,6164.09,University Pl & E 14 St,5905.14,40.74311555376486,-73.98215353488922,40.734814,-73.992085,member
EEC61D8721173445,classic_bike,2022-04-23T12:41:44Z,2022-04-23T13:13:27Z,W 89 St & Columbus Ave,7432.09,3 Ave & E 62 St,6762.04,40.7882213,-73.97041561,40.76312584,-73.96526895,member
87AEA86F9AF141A3,classic_bike,2022-04-04T09:36:48Z,2022-04-04T09:47:43Z,Broadway & W 29 St,6289.06,4 Ave & E 12 St,5788.15,40.7462009,-73.98855723,40.732647,-73.99011,member
8933368F8DD9A496,electric_bike,2022-04-15T08:55:47Z,2022-04-15T08:58:26Z,W 37 St & 5 Ave,6398.06,Broadway & W 41 St,6560.01,40.75038009,-73.98338988,40.75513557,-73.98658032,member
A98CA1CA40A21BCD,classic_bike,2022-04-15T16:51:17Z,2022-04-15T16:51:19Z,Icahn Stadium,7514.01,Icahn Stadium,7514.01,40.79346,-73.92389,40.79346,-73.92389,member
D382EF3DA58BA3B9,classic_bike,2022-04-22T17:38:28Z,2022-04-22T18:12:40Z,W 47 St & 6 Ave,6667.04,Broadway & W 133 St,7903.02,40.758397,-73.98255,40.8190344,-73.956155999999993,member
078373AAE9DEA851,classic_bike,2022-04-29T12:15:02Z,2022-04-29T12:16:23Z,2 Ave & E 29 St,6122.09,2 Ave & E 31 St,6197.02,40.741723510974715,-73.97809267044067,40.74290902,-73.97706058,member
1169A32F569E2A6B,classic_bike,2022-04-16T13:44:13Z,2022-04-16T13:55:23Z,3 St & Hoyt St,4110.1,3 St & Prospect Park West,3865.05,40.6777287,-73.99364123,40.668132,-73.97363831,casual
4E0F4823F8363DF1,classic_bike,2022-04-18T10:36:41Z,2022-04-18T11:04:11Z,Carlton Ave & Park Ave,4732.04,Bayard St & Baxter St,5351.03,40.69580705,-73.97355569,40.71602118,-73.99974372,member
E48CD437C2D8F732,classic_bike,2022-04-21T20:15:06Z,2022-04-21T20:19:11Z,Spruce St & Nassau St,5137.1,Water St &  Fletcher St,5024.1,40.71146364,-74.00552427,40.706410755236135,-74.00559738278389,member
C33B9DBA1D0D95EF,classic_bike,2022-04-24T18:56:29Z,2022-04-24T19:02:59Z,Washington Square E,5755.09,E 2 St & Avenue B,5515.02,40.73049393,-73.9957214,40.72217444,-73.98368779,member
571200DBEEA22D21,electric_bike,2022-04-08T16:58:36Z,2022-04-08T17:03:10Z,E 7 St & Ave C,5545.01,E 3 St & 1 Ave,5553.03,40.72412944090093,-73.97901266813278,40.72467721,-73.98783413,member
EFE0103078949AD6,classic_bike,2022-04-18T12:44:15Z,2022-04-18T13:09:36Z,1 Ave & E 39 St,6303.01,5 Ave & E 63 St,6904.06,40.74714,-73.97113,40.766368,-73.971518,casual
B2EC771CA4CB6D77,classic_bike,2022-04-14T16:13:08Z,2022-04-14T16:33:16Z,W 13 St & 7 Ave,6030.04,Duane St & Hudson St,5359.12,40.73781509,-73.99994661,40.71703,-74.00925,member
30480ECD812F4F6E,classic_bike,2022-04-20T11:13:44Z,2022-04-20T11:13:53Z,Melrose St & Broadway,4801.04,Melrose St & Broadway,4801.04,40.697481,-73.935877,40.697481,-73.935877,casual
D2044B86CE2B2E59,classic_bike,2022-04-20T22:51:41Z,2022-04-20T23:00:21Z,Willoughby Ave & Tompkins Ave,4665.02,Humboldt St & Varet St,4956.02,40.69425403,-73.94626915,40.7031724,-73.940636,casual
D0C6D4B0353CE14D,classic_bike,2022-04-22T18:58:01Z,2022-04-22T19:20:32Z,5 Ave & E 63 St,6904.06,W 15 St & 6 Ave,5989.02,40.766368,-73.971518,40.738046142482766,-73.99642959237099,member
F4F8744734F1AC67,electric_bike,2022-04-28T08:11:21Z,2022-04-28T08:22:47Z,Howard St & Lafayette St,5422.04,Howard St & Lafayette St,5422.04,40.71910537,-73.99973337,40.71910537,-73.99973337,member
140400A5A0D1B038,classic_bike,2022-04-29T06:21:38Z,2022-04-29T06:30:23Z,W 56 St & 8 Ave,6884.03,6 Ave & W 33 St,6364.07,40.765959181657976,-73.98313522338867,40.74901271,-73.98848395,member
96C5F52C19C91BD1,electric_bike,2022-04-12T14:08:28Z,2022-04-12T14:13:35Z,Thompson St & Bleecker St,5721.07,Cleveland Pl & Spring St,5492.05,40.72840059450829,-73.99968780577183,40.722103786686034,-73.99724900722504,member
988134BF4F7F1095,electric_bike,2022-04-04T21:25:49Z,2022-04-04T21:50:14Z,E 22 St & 2 Ave,5971.09,Columbus Ave & W 95 St,7520.07,40.73716919369882,-73.98122549057007,40.7919557,-73.968087,casual
64F1D307754D87A5,classic_bike,2022-04-24T20:14:20Z,2022-04-24T20:19:17Z,47 Ave & Skillman Ave,6237.01,49 Ave & 21 St,6128.04,40.7437524099784,-73.94176483154297,40.74252,-73.948852,member
111D0FA865AE9B19,classic_bike,2022-04-29T11:06:44Z,2022-04-29T11:48:34Z,8 Ave & W 49 St,6747.07,Liberty St & Nassau St,5105.09,40.76171227910671,-73.98655101656914,40.70858894240581,-74.00935482235809,member
6DB99CBD3E7705BD,electric_bike,2022-04-11T17:11:11Z,2022-04-11T17:28:47Z,E 16 St & 5 Ave,6022.04,W 43 St & 10 Ave,6756.01,40.73726186,-73.99238967,40.76009437,-73.99461843,member
D01462A33D9A06B6,classic_bike,2022-04-13T17:34:31Z,2022-04-13T17:39:18Z,Frederick Douglass Blvd & W 117 St,7688.12,Frederick Douglass Blvd & W 112 St,7631.23,40.805159,-73.954692,40.801694,-73.957145,member
675FD3CD873A888C,classic_bike,2022-04-22T09:38:14Z,2022-04-22T10:00:58Z,Columbus Ave & W 72 St,7175.05,Hudson St & W 13 St,6115.06,40.7770575,-73.97898475,40.74005708567285,-74.0052741765976,member
90BE2147652076A6,classic_bike,2022-04-24T11:55:44Z,2022-04-24T12:01:05Z,E 85 St & 3 Ave,7212.05,E 74 St & 1 Ave,6953.08,40.77801203,-73.95407149,40.7689738,-73.95482273,member
3C5EF3D0DE1504AA,electric_bike,2022-04-04T15:41:03Z,2022-04-04T16:14:46Z,Ashland Pl & Dekalb Ave,4513.09,Riverside Blvd & W 67 St,7183.03,40.690065,-73.978776,40.777507027547976,-73.98888587951659,member
0374BDCED3CC85BC,electric_bike,2022-04-30T15:20:01Z,2022-04-30T15:35:31Z,Milton St & Franklin St,5752.07,Grand St & Havemeyer St,5267.08,40.72906,-73.95779,40.71286844,-73.95698119,member
4AEAEE3A65BB9FD3,electric_bike,2022-04-02T14:37:11Z,2022-04-02T14:43:13Z,Cleveland Pl & Spring St,5492.05,Market St & Henry St,5270.09,40.722103786686034,-73.99724900722504,40.71310702305908,-73.99446353316307,member
648B8D9FA8356D3C,classic_bike,2022-04-14T08:43:32Z,2022-04-14T08:51:57Z,Broadway\t& W 48 St,6708.04,Broadway & W 41 St,6560.01,40.76017739537783,-73.98486793041229,40.75513557,-73.98658032,member
CEC8698298AF0CC6,classic_bike,2022-04-13T14:54:31Z,2022-04-13T15:03:00Z,Washington Square E,5755.09,E 14 St & Avenue B,5736.09,40.73049393,-73.9957214,40.72938685,-73.97772429,member
08A00BA5CB671DF9,classic_bike,2022-04-19T17:44:02Z,2022-04-19T17:45:30Z,Madison Av & E 51 St,6659.09,E 53 St & Madison Ave,6659.03,40.75863,-73.97513,40.7597108,-73.97402311,member
EEB4C424B70F6DC9,electric_bike,2022-04-19T21:02:19Z,2022-04-19T21:05:19Z,Washington St & Gansevoort St,6039.06,W 20 St & 10 Ave,6306.01,40.739323,-74.008119,40.745686,-74.005141,member
8BAFE0DB326FDEA4,electric_bike,2022-04-21T23:19:53Z,2022-04-21T23:43:51Z,Central Park West & W 76 St,7253.04,W 159 St & Edgecombe Ave,8119.05,40.77896784,-73.97374737,40.833303,-73.939326,casual
9538F749843F2926,classic_bike,2022-04-11T15:51:21Z,2022-04-11T16:08:13Z,Greene St & Prince St,5602.06,Washington St & Gansevoort St,6039.06,40.72511734422387,-73.99930492043495,40.739323,-74.008119,member
73710A23966DDE6D,classic_bike,2022-04-01T09:32:44Z,2022-04-01T09:35:16Z,E 19 St & 3 Ave,5938.01,E 17 St & Broadway,5980.07,40.73624527,-73.98473765,40.73704984,-73.99009296,member
FADEDAAA1AB886CF,classic_bike,2022-04-08T08:32:34Z,2022-04-08T08:37:30Z,W 20 St & 8 Ave,6224.05,Broadway & E 21 St,6098.1,40.74345335,-74.00004031,40.739888408589955,-73.98958593606949,member
81A73C9DC491B93F,classic_bike,2022-04-28T17:42:27Z,2022-04-28T17:50:02Z,Atlantic Ave & Fort Greene Pl,4354.07,5 Ave & 3 St,3987.06,40.68382604,-73.97632328,40.6728155,-73.98352355,member
F9AFB7C4F9749565,electric_bike,2022-04-29T19:21:08Z,2022-04-29T19:26:53Z,Hope St & Union Ave,5187.03,N 15 St & Wythe Ave,5520.09,40.71167351,-73.95141312,40.724055,-73.955736,member
4F63C46272892E65,classic_bike,2022-04-21T19:26:57Z,2022-04-21T19:36:48Z,Hudson St & W 13 St,6115.06,Lafayette St & Jersey St,5561.06,40.74005708567285,-74.0052741765976,40.72456089,-73.99565293,member
4CE4B98841736CF0,classic_bike,2022-04-30T10:02:21Z,2022-04-30T10:02:48Z,Perry St & Bleecker St,5922.07,Perry St & Bleecker St,5922.07,40.73535398,-74.00483091,40.73535398,-74.00483091,member
B265EFD5A5C1388A,classic_bike,2022-04-15T22:16:38Z,2022-04-15T22:20:47Z,Clinton St & Tillary St,4748.07,Hicks St & Montague St,4645.09,40.69623297129315,-73.99142056703568,40.69512845,-73.99595065,member
4C404F5F9FEACBAE,classic_bike,2022-04-07T14:38:36Z,2022-04-07T14:46:29Z,E 47 St & 2 Ave,6498.1,E 39 St & Lexington Ave,6389.09,40.75323098,-73.97032517,40.749498546025194,-73.97729203113158,member
E8E274F14F51D79F,classic_bike,2022-04-22T06:25:06Z,2022-04-22T06:48:37Z,Hudson St & Reade St,5359.1,W 30 St & 8 Ave,6373.07,40.71625008,-74.0091059,40.74965268472847,-73.9952078461647,member
3B5EE49396390789,classic_bike,2022-04-15T16:59:09Z,2022-04-15T17:12:05Z,Suffolk St & Stanton St,5445.02,S 5 Pl & S 5 St,5125.03,40.72066442,-73.98517977,40.710451,-73.960876,casual
39F8634855E05CDC,electric_bike,2022-04-11T07:33:22Z,2022-04-11T07:40:29Z,Bedford Ave & Bergen St,4066.15,DeKalb Ave & Franklin Ave,4528.01,40.676368,-73.952918,40.69064807082943,-73.95746178925037,member
ACE825FF3A1D8668,electric_bike,2022-04-04T15:17:40Z,2022-04-04T15:30:03Z,S 4 St & Wythe Ave,5204.05,Sharon St & Olive St,5323.05,40.71285887,-73.96590294,40.715353,-73.93856,casual
ABBF4933DA9382CB,classic_bike,2022-04-28T16:19:56Z,2022-04-28T16:38:32Z,E 58 St & 1 Ave (NW Corner),6723.1,E 82 St & East End Ave,7049.04,40.759125,-73.962658,40.7724607,-73.9468208,member
2F96D56E4BEDD6C3,electric_bike,2022-04-03T19:24:30Z,2022-04-03T19:35:13Z,W 25 St & 6 Ave,6215.04,W 56 St & 6 Ave,6809.07,40.74395411,-73.99144871,40.76340613,-73.97722479,member
9EF5EB1035A43CC3,electric_bike,2022-04-05T11:14:17Z,2022-04-05T11:24:40Z,Driggs Ave & Lorimer St,5481.04,Kent Ave & Division Ave,5021.05,40.72179134,-73.9504154,40.706563674670925,-73.9683187007904,member
3F415F9AFFECCD11,electric_bike,2022-04-08T14:47:05Z,2022-04-08T15:25:42Z,Central Park West & W 76 St,7253.04,Central Park West & W 72 St,7141.07,40.77896784,-73.97374737,40.77579376683666,-73.9762057363987,casual
84FD0905373D13B6,electric_bike,2022-04-01T06:22:15Z,2022-04-01T06:23:47Z,E 11 St & Avenue B,5659.11,E 7 St & Ave C,5545.01,40.72746420692392,-73.97950418293476,40.72412944090093,-73.97901266813278,member
3D1C82A00B53C23F,electric_bike,2022-04-20T20:11:56Z,2022-04-20T20:15:20Z,Amsterdam Ave & W 73 St,7260.09,W 63 St & Broadway,7052.01,40.77966809007312,-73.98093044757842,40.77163851,-73.98261428,member
D9A169C583B70CD8,classic_bike,2022-04-20T13:44:22Z,2022-04-20T13:53:15Z,King St & Varick St,5687.11,W 13 St & 5 Ave,5947.04,40.72789701409023,-74.00536268949507,40.735445,-73.99431,member
6DDFC5AE2BF94625,electric_bike,2022-04-22T15:40:41Z,2022-04-22T16:16:22Z,Central Park W & W 91 St,7453.01,Bayard St & Baxter St,5351.03,40.78866499127883,-73.96680057048798,40.71602118,-73.99974372,member
061F68542BDA6795,classic_bike,2022-04-27T15:34:37Z,2022-04-27T15:48:08Z,W 51 St & 6 Ave,6740.1,2 Ave & E 72 St,6925.09,40.7606597,-73.98042047,40.7687620293096,-73.95840793848038,member
ACF524DFCEBD16A7,classic_bike,2022-04-27T17:20:42Z,2022-04-27T17:33:08Z,5 Ave & E 29 St,6248.06,E 56 St & Madison Ave,6732.01,40.7451677,-73.98683077,40.761573,-73.972628,member
F530BB16FBD13142,electric_bike,2022-04-17T13:11:14Z,2022-04-17T13:36:38Z,Little West St & 1 Pl,5001.08,10 Ave & W 14 St,6157.04,40.70569254,-74.01677685,40.741981599940225,-74.00831580162048,casual
66B5ADEB07A0966B,classic_bike,2022-04-12T08:57:30Z,2022-04-12T09:05:35Z,Columbus Ave & W 72 St,7175.05,Grand Army Plaza & Central Park S,6839.1,40.7770575,-73.97898475,40.7643971,-73.97371465,member
F18242C4EF7A58E1,classic_bike,2022-04-24T16:02:59Z,2022-04-24T16:14:01Z,W 18 St & 6 Ave,6064.08,Ave A & E 11 St,5703.13,40.73971301,-73.99456405,40.72854745023944,-73.98175925016403,member
3FDED4AFFC64027E,electric_bike,2022-04-03T01:45:51Z,2022-04-03T01:55:21Z,Flushing Ave & Woodward Ave,5225.02,Park Ave & Marcus Garvey Blvd,4768.02,40.71246,-73.91873,40.698617,-73.941342,casual
BE910949610C2C14,classic_bike,2022-04-03T20:29:02Z,2022-04-03T20:50:18Z,West St & Chambers St,5329.03,Broadway & E 21 St,6098.1,40.71754834,-74.01322069,40.739888408589955,-73.98958593606949,member
FFBB961D0E876361,classic_bike,2022-04-28T16:53:10Z,2022-04-28T16:53:12Z,Sheridan Ave & E 172 St,8229.04,Sheridan Ave & E 172 St,8229.04,40.840494,-73.911479,40.840494,-73.911479,member
195B805ACE307C8C,electric_bike,2022-04-20T06:57:33Z,2022-04-20T07:05:22Z,FDR Drive & E 35 St,6230.04,W 44 St & 5 Ave,6551.02,40.744219,-73.97121214,40.75500254,-73.98014437,member
56D3033A2D27CEEA,electric_bike,2022-04-03T07:40:48Z,2022-04-03T07:41:36Z,Longwood Ave & Southern Blvd,7849.1,Longwood Ave & Southern Blvd,7849.1,40.816343,-73.896447,40.816343,-73.896447,casual
C2A2CA7529271989,electric_bike,2022-04-25T17:48:57Z,2022-04-25T18:02:46Z,E 88 St & Park Ave,7293.1,E 55 St & 2 Ave,6650.07,40.781410700190015,-73.95595908164978,40.75797322,-73.96603308,member
97695D190D8DD2D0,electric_bike,2022-04-27T12:59:07Z,2022-04-27T13:00:00Z,8 Ave & W 49 St,6747.07,8 Ave & W 49 St,6747.07,40.76171227910671,-73.98655101656914,40.76171227910671,-73.98655101656914,casual
410E2A2487595703,classic_bike,2022-04-14T13:14:47Z,2022-04-14T13:19:21Z,W 59 St & 10 Ave,7023.04,W 55 St & 6 Ave,6809.09,40.770513,-73.988038,40.763189,-73.978434,member
DE5A85199D6587DE,classic_bike,2022-04-28T19:13:05Z,2022-04-28T19:25:40Z,Central Park W & W 97 St,7538.18,Cathedral Pkwy & Broadway,7680.03,40.79249519495111,-73.96417066463071,40.804213,-73.96699104,member
F535D052D0CEA31C,classic_bike,2022-04-18T12:23:41Z,2022-04-18T12:45:36Z,W 30 St & 8 Ave,6373.07,W 25 St & 6 Ave,6215.04,40.74965268472847,-73.9952078461647,40.74395411,-73.99144871,casual
F277F7C0A8877AA0,classic_bike,2022-04-23T16:21:13Z,2022-04-23T16:24:29Z,E 4 St & Ave B,5515.08,E 11 St & Avenue B,5659.11,40.723346832180155,-73.98265913128853,40.72746420692392,-73.97950418293476,member
853237B58C59C7E0,classic_bike,2022-04-22T17:41:51Z,2022-04-22T18:04:41Z,Bergen St & Smith St,4446.01,30 St & 4 Ave,3564.04,40.6867443,-73.99063168,40.657743,-74.001141,member
9C29D8F04FBAEF68,classic_bike,2022-04-05T06:12:59Z,2022-04-05T06:23:02Z,1 Ave & E 68 St,6822.09,E 47 St & Park Ave,6584.12,40.76500525,-73.95818491,40.75510267,-73.97498696,member
2535A8AAC0B30801,classic_bike,2022-04-14T13:16:13Z,2022-04-14T13:21:12Z,Madison Ave & E 99 St,7443.01,E 88 St & Park Ave,7293.1,40.78948541553215,-73.95242929458618,40.781410700190015,-73.95595908164978,member
DC28E0993DBD9956,electric_bike,2022-04-05T06:07:50Z,2022-04-05T06:19:12Z,Clinton St & Grand St,5303.06,Greenwich St & W Houston St,5730.08,40.71559509,-73.9870295,40.728846,-74.008591,member
1657D4415C503D87,classic_bike,2022-04-14T07:48:10Z,2022-04-14T08:08:42Z,Leonard St & Maujer St,5148.03,Myrtle Ave & Fleet Pl,4628.07,40.7103685423523,-73.94705951213837,40.693534,-73.981909,member
2CEF07D42DC583DB,classic_bike,2022-04-30T00:37:29Z,2022-04-30T00:58:26Z,Brooklyn Bridge Park - Pier 2,4756.04,Brooklyn Bridge Park - Pier 2,4756.04,40.698458,-73.997178,40.698458,-73.997178,casual
54499A14CD6519F1,classic_bike,2022-04-03T17:34:14Z,2022-04-03T17:39:58Z,Bergen St & 4 Ave,4322.06,7 Ave & Park Pl,4125.07,40.68256425759694,-73.9798977971077,40.6776147,-73.97324283,member
5148CFEFD4D6AA43,electric_bike,2022-04-15T18:36:10Z,2022-04-15T18:56:59Z,Wards Meadow Comfort Station,7327.01,Alexander Ave & E 134 St,7712.04,40.78294,-73.93077,40.807466,-73.927107,member
285499C6ED5187C5,classic_bike,2022-04-23T09:56:05Z,2022-04-23T10:09:24Z,E 4 St & 2 Ave,5593.04,Grand St & Elizabeth St,5382.06,40.7262807,-73.98978041,40.718822,-73.99596,member
AAE6B13D10F22A3D,classic_bike,2022-04-15T17:22:14Z,2022-04-15T17:43:19Z,E 84 St & Park Ave,7243.04,West End Ave & W 107 St,7650.05,40.77862688,-73.95772073,40.8021174,-73.9681805305,member
CFE3A2A6004EF6D3,classic_bike,2022-04-21T15:19:27Z,2022-04-21T15:22:43Z,Greene St & Prince St,5602.06,Cleveland Pl & Spring St,5492.05,40.72511734422387,-73.99930492043495,40.722103786686034,-73.99724900722504,member
A403D2349B13F288,electric_bike,2022-04-29T13:51:10Z,2022-04-29T13:57:45Z,12 Ave & W 125 St,7886.02,West End Ave & W 107 St,7650.05,40.818299,-73.960405,40.8021174,-73.9681805305,member
77997F9B128DABF5,classic_bike,2022-04-30T11:59:06Z,2022-04-30T12:26:04Z,Lorimer St & Broadway,4965.01,Norfolk St & Broome St,5374.01,40.70411791,-73.94818595,40.7172274,-73.98802084,casual
094689334A26AE27,classic_bike,2022-04-09T09:51:17Z,2022-04-09T09:54:11Z,W 22 St & 8 Ave,6224.03,8 Ave & W 31 St,6450.05,40.74475148,-73.99915362,40.7505853470215,-73.9946848154068,member
5C5CE9D9EC33A581,classic_bike,2022-04-09T20:51:31Z,2022-04-09T21:09:44Z,Central Park West & W 76 St,7253.04,Central Park West & W 76 St,7253.04,40.77896784,-73.97374737,40.77896784,-73.97374737,casual
93764C6976CF0DBE,classic_bike,2022-04-21T18:49:46Z,2022-04-21T19:00:53Z,Broadway & E 21 St,6098.1,Cleveland Pl & Spring St,5492.05,40.739888408589955,-73.98958593606949,40.722103786686034,-73.99724900722504,member
36A63B47113118CF,electric_bike,2022-04-07T22:30:39Z,2022-04-07T22:36:22Z,18 St & 27 Ave,7062.07,34th Ave & Vernon Blvd,6873.01,40.772768286288304,-73.92743647098541,40.76535380385866,-73.93986314535141,member
4205BC321E56F927,classic_bike,2022-04-07T06:07:29Z,2022-04-07T06:12:18Z,Henry St & Degraw St,4380.08,Court St & State St,4488.08,40.6847514,-73.99917254,40.6902375,-73.99203074,member
AE084904CACAC28E,electric_bike,2022-04-30T15:00:11Z,2022-04-30T15:02:46Z,5 Ave & E 63 St,6904.06,5 Ave & E 63 St,6904.06,40.766368,-73.971518,40.766368,-73.971518,casual
1B6576D924C6A113,classic_bike,2022-04-19T11:56:48Z,2022-04-19T12:02:03Z,W 47 St & 6 Ave,6667.04,W 40 St & 5 Ave,6474.02,40.758397,-73.98255,40.752269,-73.982079,member
BDDCDEE2142C6BBF,electric_bike,2022-04-29T12:47:32Z,2022-04-29T13:17:07Z,E 88 St & 1 Ave,7235.13,E 40 St & 5 Ave,6474.11,40.778301,-73.9488134,40.752062307,-73.9816324043,member
EA8CDB188160758E,classic_bike,2022-04-02T19:32:19Z,2022-04-02T19:35:47Z,E 41 St & Madison Ave (SE corner),6432.1,E 33 St & 5 Ave,6322.01,40.752049,-73.979635,40.74765947,-73.98490707,member
8887AA8C7713C5E7,classic_bike,2022-04-09T17:02:04Z,2022-04-09T17:13:20Z,Washington Pl & 6 Ave,5838.09,Walker St & Baxter St,5351.07,40.73224119,-74.00026394,40.717411,-73.999573,member
6CB39F5D04946607,electric_bike,2022-04-17T13:21:38Z,2022-04-17T13:30:52Z,E 40 St & Park Ave,6432.11,W 11 St & 6 Ave,5914.03,40.750756,-73.978326,40.73532427,-73.99800419,member
A8031F26B8C4D1DB,electric_bike,2022-04-25T22:14:40Z,2022-04-25T22:36:28Z,West St & Liberty St,5184.08,West End Ave & W 60 St,7059.08,40.711444,-74.014847,40.77237,-73.99005,member
7609E6632486EDD9,electric_bike,2022-04-17T12:20:49Z,2022-04-17T12:24:22Z,6 Ave & W 45 St,6593.15,E 40 St & 5 Ave,6474.11,40.756951,-73.982631,40.752062307,-73.9816324043,member
5FB997B3881C1AF3,docked_bike,2022-04-20T22:42:37Z,2022-04-20T23:08:16Z,Rivington St & Ridge St,5406.02,Kent Ave & Division Ave,5021.05,40.718502,-73.983299,40.706564,-73.968319,casual
4E5079D1046629DD,electric_bike,2022-04-28T07:53:47Z,2022-04-28T07:58:04Z,E 11 St & 1 Ave,5746.14,E 2 St & Avenue C,5476.03,40.72953837,-73.98426726,40.7208736,-73.98085795,casual
E20A6C2B2AB241B1,classic_bike,2022-04-10T01:52:00Z,2022-04-10T02:14:57Z,8 Ave & W 16 St,6072.11,E 7 St & Avenue A,5626.07,40.740983,-74.001702,40.72621788,-73.98379855,member
D1B984D439E3B42D,classic_bike,2022-04-13T17:34:38Z,2022-04-13T18:01:24Z,E 44 St & Lexington Ave,6464.09,W 76 St & Columbus Ave,7281.09,40.752643,-73.974996,40.7801839724239,-73.97728532552719,member
D56B49F7F70E4677,classic_bike,2022-04-25T13:57:05Z,2022-04-25T14:03:01Z,W 47 St & 10 Ave,6824.07,W 47 St & 6 Ave,6667.04,40.76269882,-73.99301222,40.758397,-73.98255,member
BCD9590C3C2468A0,classic_bike,2022-04-08T18:46:34Z,2022-04-08T18:59:28Z,Broadway & W 58 St,6948.1,E 92 St & Park Ave,7344.06,40.76695317,-73.98169333,40.78385,-73.95416,member
3BEBA2C11E07C44C,classic_bike,2022-04-14T15:34:46Z,2022-04-14T15:36:01Z,E 17 St & Broadway,5980.07,E 17 St & Broadway,5980.07,40.73704984,-73.99009296,40.73704984,-73.99009296,member
CF068328430BAD6C,classic_bike,2022-04-05T06:56:06Z,2022-04-05T06:59:27Z,FDR Drive & E 35 St,6230.04,1 Ave & E 39 St,6303.01,40.744219,-73.97121214,40.74714,-73.97113,member
EB19F86677AD5DF6,classic_bike,2022-04-26T12:54:22Z,2022-04-26T13:06:35Z,E 58 St & 3 Ave,6762.02,E 88 St & 1 Ave,7235.13,40.76095756,-73.96724467,40.778301,-73.9488134,member
23AC39F6EB520B53,classic_bike,2022-04-14T12:47:13Z,2022-04-14T13:04:47Z,E 91 St & 2 Ave,7286.01,E 58 St & 1 Ave (NW Corner),6723.1,40.78115276427915,-73.94963040947914,40.759125,-73.962658,casual
E3A9E0FB3B5B7139,classic_bike,2022-04-21T10:50:57Z,2022-04-21T10:57:43Z,Bergen St & Smith St,4446.01,Clinton St & Union St,4266.03,40.6867443,-73.99063168,40.6831164,-73.99785267,member
1560AE8FED1CE6B4,classic_bike,2022-04-13T12:00:45Z,2022-04-13T12:14:39Z,5 Ave & E 72 St,7100.07,Central Park North & Adam Clayton Powell Blvd,7617.07,40.77282817,-73.96685276,40.799484,-73.955613,member
2FE7936264C216F6,classic_bike,2022-04-20T16:36:52Z,2022-04-20T16:42:31Z,Greenwich Ave & 8 Ave,6072.06,Christopher St & Greenwich St,5847.01,40.7390169121,-74.0026376103,40.73291553,-74.00711384,member
4AA3C20B8C85F561,classic_bike,2022-04-25T16:39:12Z,2022-04-25T16:51:52Z,E 27 St & Park Ave S,6131.13,W 39 St & 9 Ave,6644.04,40.74275179648995,-73.9847157150507,40.75645824,-73.99372222,member
16E2E361FB8F66B5,electric_bike,2022-04-14T00:07:30Z,2022-04-14T00:13:48Z,Macon St & Nostrand Ave,4214.03,Myrtle Ave & Marcy Ave,4707.03,40.6809833854,-73.9500479759,40.69539817,-73.94954908,member
600E88F3FCC91A2D,electric_bike,2022-04-06T18:13:28Z,2022-04-06T18:17:23Z,Mercer St & Bleecker St,5679.05,4 Ave & E 12 St,5788.15,40.72706363348306,-73.99662137031554,40.732647,-73.99011,member
3097A7602E9927D5,classic_bike,2022-04-27T13:09:33Z,2022-04-27T13:19:46Z,35 St & 30 Ave,6887.03,Vernon Blvd & 10 St,6937.07,40.76547569244953,-73.91811579465866,40.7671863,-73.9373554,member
B1785CBEB510EE45,electric_bike,2022-04-15T18:03:47Z,2022-04-15T18:05:08Z,Wyckoff Av & Jefferson St,5051.01,Jefferson St & Cypress Ave,5082.08,40.707165,-73.923711,40.70907,-73.92157,member
04B93EEC6670B1D4,classic_bike,2022-04-12T18:15:09Z,2022-04-12T18:32:44Z,Central Park W & W 91 St,7453.01,Grand Army Plaza & Central Park S,6839.1,40.78866499127883,-73.96680057048798,40.7643971,-73.97371465,member
D5EFFD0C2EA15F6E,electric_bike,2022-04-15T14:15:04Z,2022-04-15T14:24:53Z,E 33 St & 5 Ave,6322.01,E 16 St & 5 Ave,6022.04,40.74765947,-73.98490707,40.73726186,-73.99238967,member
3DA5FF0AA3487143,classic_bike,2022-04-01T18:16:39Z,2022-04-01T18:32:03Z,Broadway & W 29 St,6289.06,LaGuardia Pl & W 3 St,5721.14,40.7462009,-73.98855723,40.72917025,-73.99810231,casual
3AB9C24B040F8741,electric_bike,2022-04-30T12:48:56Z,2022-04-30T13:11:02Z,E 63 St & 3 Ave,6830.02,W 30 St & 10 Ave,6459.07,40.763954,-73.9646,40.752694,-74.002353,casual
9AAC8D4E46FD27BA,electric_bike,2022-04-05T17:15:33Z,2022-04-05T17:16:19Z,W 204 St & Nagle Ave,8579.03,W 204 St & Nagle Ave,8579.03,40.863211,-73.920827,40.863211,-73.920827,member
6A6E4C4F8FA18F33,classic_bike,2022-04-19T07:59:59Z,2022-04-19T08:08:38Z,6 Ave & W 33 St,6364.07,W 34 St &\tHudson Blvd E,6535.04,40.74901271,-73.98848395,40.75516719072139,-74.00059908628464,member
